City_ID,City,Latitude,Longitude,Country,Wind Speed,Max Temp,Humidity,Cloudiness,Date
0,port alfred,-33.59,26.89,ZA,24.14,60.75,44,100,1601107867
1,vao,-22.67,167.48,NC,18.34,72.75,91,20,1601107569
2,vestmannaeyjar,63.44,-20.27,IS,28.52,49.78,91,100,1601107868
3,ushuaia,-54.8,-68.3,AR,14.99,39.2,86,75,1601107868
4,kaitangata,-46.28,169.85,NZ,3.0,55.0,58,23,1601107868
5,jamestown,42.1,-79.24,US,5.82,55.99,93,1,1601107869
6,margate,51.38,1.39,GB,14.0,48.0,74,97,1601107869
7,blythe,33.61,-114.6,US,4.7,84.2,17,1,1601107869
8,atambua,-9.11,124.89,ID,0.76,83.37,55,100,1601107870
9,mataura,-46.19,168.86,NZ,5.01,54.0,67,14,1601107870
10,porto belo,-27.16,-48.55,BR,5.82,66.2,93,75,1601107870
11,bredasdorp,-34.53,20.04,ZA,12.75,50.0,87,9,1601107870
12,lavrentiya,65.58,-171.0,RU,7.72,33.91,89,2,1601107871
13,hobart,-42.88,147.33,AU,24.16,45.0,70,75,1601107613
14,kapaa,22.08,-159.32,US,17.22,80.6,74,75,1601107871
15,lahat,-3.8,103.53,ID,6.96,88.02,51,100,1601107871
16,rikitea,-23.12,-134.97,PF,15.05,73.76,85,39,1601107871
17,sorland,67.67,12.69,NO,4.7,42.8,75,75,1601107872
18,baker city,44.77,-117.83,US,5.82,53.6,76,90,1601107872
19,georgetown,5.41,100.34,MY,4.7,86.0,66,40,1601107666
20,quilali,13.57,-86.03,NI,1.07,71.13,86,100,1601107872
21,dingle,11.0,122.67,PH,8.25,84.51,80,98,1601107873
22,port blair,11.67,92.75,IN,13.6,85.35,70,16,1601107873
23,punta arenas,-53.15,-70.92,CL,36.91,44.6,65,31,1601107744
24,turbat,26.0,63.04,PK,2.73,100.83,7,0,1601107773
25,kyshtovka,56.55,76.63,RU,8.63,49.35,65,52,1601107874
26,bardiyah,31.76,25.09,LY,12.3,85.48,34,0,1601107874
27,beloha,-25.17,45.05,MG,9.62,91.2,22,0,1601107874
28,tuktoyaktuk,69.45,-133.04,CA,14.25,33.17,95,100,1601107874
29,corabia,43.78,24.5,RO,9.17,71.6,64,75,1601107874
30,port elizabeth,-33.92,25.57,ZA,36.91,60.8,38,20,1601107875
31,daru,-9.08,143.21,PG,14.32,78.15,84,57,1601107875
32,cabo san lucas,22.89,-109.91,MX,1.01,81.0,92,0,1601107665
33,kodiak,57.79,-152.41,US,10.29,48.2,81,90,1601107875
34,locri,38.24,16.26,IT,8.05,69.01,52,20,1601107876
35,dunedin,-45.87,170.5,NZ,1.99,52.0,85,15,1601107876
36,dimona,31.07,35.03,IL,4.47,78.19,52,20,1601107876
37,jhalida,23.37,85.97,IN,6.93,91.4,59,75,1601107876
38,bluff,-46.6,168.33,NZ,5.01,54.0,67,82,1601107877
39,cidreira,-30.18,-50.21,BR,16.87,63.81,88,100,1601107877
40,hilo,19.73,-155.09,US,4.7,75.2,78,40,1601107585
41,klaksvik,62.23,-6.59,FO,8.5,41.0,93,64,1601107877
42,maningrida,-12.07,134.27,AU,12.19,83.66,64,58,1601107877
43,port hardy,50.7,-127.42,CA,6.93,51.8,93,90,1601107878
44,torbay,47.67,-52.73,CA,17.22,46.0,75,5,1601107878
45,necochea,-38.55,-58.74,AR,4.0,52.0,98,100,1601107878
46,ngunguru,-35.62,174.5,NZ,8.01,63.0,90,100,1601107878
47,airai,-8.93,125.41,TL,3.47,73.85,57,100,1601107879
48,pangnirtung,66.15,-65.71,CA,6.93,37.4,55,40,1601107879
49,yellowknife,62.46,-114.35,CA,6.93,44.6,93,90,1601107630
50,victoria,22.29,114.16,HK,3.0,84.0,76,90,1601107810
51,vaini,-21.2,-175.2,TO,9.17,73.4,88,75,1601107879
52,kahului,20.89,-156.47,US,11.41,80.6,65,40,1601107879
53,namibe,-15.2,12.15,AO,5.1,66.54,74,84,1601107880
54,chuy,-33.7,-53.46,UY,6.46,58.33,94,100,1601107880
55,kruisfontein,-34.0,24.73,ZA,10.0,62.01,36,0,1601107880
56,cape town,-33.93,18.42,ZA,8.05,57.0,76,75,1601107863
57,alofi,-19.06,-169.92,NU,16.11,73.4,83,28,1601107881
58,moose factory,51.26,-80.61,CA,6.93,59.0,87,90,1601107881
59,pevek,69.7,170.31,RU,9.08,32.79,98,100,1601107881
60,khatanga,71.97,102.5,RU,14.09,43.14,62,85,1601107881
61,teseney,15.11,36.66,ER,9.4,88.48,50,2,1601107882
62,karratha,-20.74,116.85,AU,21.99,84.81,30,86,1601107882
63,hobyo,5.35,48.53,SO,21.21,83.01,64,57,1601107882
64,grindavik,63.84,-22.43,IS,16.11,46.4,100,90,1601107882
65,leningradskiy,69.38,178.42,RU,5.91,25.9,91,79,1601107882
66,asau,46.43,26.4,RO,7.34,62.01,96,93,1601107883
67,mareeba,-17.0,145.43,AU,9.17,80.01,69,97,1601107883
68,bam,29.11,58.36,IR,17.36,91.35,9,0,1601107883
69,thompson,55.74,-97.86,CA,6.93,48.2,93,75,1601107883
70,zeya,53.75,127.27,RU,6.71,55.13,89,100,1601107884
71,pedernales,18.04,-71.74,DO,3.67,81.64,63,2,1601107884
72,tignere,7.37,12.65,CM,0.2,66.67,96,100,1601107884
73,myanaung,18.28,95.32,MM,10.92,85.39,80,98,1601107884
74,albany,42.6,-73.97,US,1.81,61.0,85,0,1601107803
75,ponta do sol,32.67,-17.1,PT,11.41,71.6,78,75,1601107885
76,kaduqli,11.02,29.72,SD,8.23,82.9,66,44,1601107885
77,sile,41.18,29.61,TR,5.01,82.0,39,0,1601107885
78,muros,42.78,-9.06,ES,1.01,54.0,93,100,1601107885
79,adrar,20.5,-10.07,MR,8.14,91.38,14,9,1601107886
80,yumen,40.28,97.2,CN,22.68,68.43,23,46,1601107886
81,saint-philippe,-21.36,55.77,RE,10.29,80.6,51,75,1601107886
82,olafsvik,64.89,-23.71,IS,18.25,46.58,89,100,1601107886
83,tasiilaq,65.61,-37.64,GL,16.11,33.8,86,100,1601107887
84,marystown,47.17,-55.15,CA,12.91,46.99,100,0,1601107887
85,los llanos de aridane,28.66,-17.92,ES,11.41,82.0,83,75,1601107887
86,berthierville,46.08,-73.18,CA,1.01,46.99,89,40,1601107887
87,lagoa,39.05,-27.98,PT,10.16,68.22,74,5,1601107888
88,hermanus,-34.42,19.23,ZA,7.0,55.0,73,19,1601107888
89,gondanglegi,-7.75,112.01,ID,19.75,89.98,49,50,1601107888
90,lebu,-37.62,-73.65,CL,5.08,45.82,83,60,1601107888
91,vostok,46.49,135.88,RU,8.81,48.72,74,100,1601107889
92,saskylakh,71.92,114.08,RU,8.25,44.11,64,83,1601107889
93,sidi ali,36.1,0.42,DZ,9.24,69.04,52,61,1601107889
94,faanui,-16.48,-151.75,PF,15.19,78.3,80,0,1601107890
95,tuatapere,-46.13,167.68,NZ,5.01,54.0,67,74,1601107890
96,bathsheba,13.22,-59.52,BB,6.93,80.6,78,20,1601107890
97,ilulissat,69.22,-51.1,GL,6.93,33.8,86,100,1601107890
98,atar,20.52,-13.05,MR,13.35,90.12,26,17,1601107890
99,vaitape,-16.52,-151.75,PF,15.08,79.16,79,1,1601107891
100,puerto ayora,-0.74,-90.35,EC,5.01,68.0,88,99,1601107891
101,matamoros,25.53,-103.25,MX,1.9,70.0,46,0,1601107762
102,half moon bay,37.46,-122.43,US,5.19,62.01,93,1,1601107891
103,ondangwa,-17.92,15.95,NA,7.43,79.3,16,0,1601107891
104,port-gentil,-0.72,8.78,GA,12.75,77.0,94,75,1601107892
105,whitehorse,60.72,-135.05,CA,3.36,37.4,93,40,1601107892
106,aktash,50.3,87.73,RU,4.72,32.74,78,85,1601107892
107,havre,49.58,0.33,FR,24.16,53.6,58,0,1601107892
108,sokolka,53.41,23.5,PL,20.13,69.01,72,100,1601107893
109,guadix,37.3,-3.14,ES,1.99,57.0,37,0,1601107893
110,poddorye,57.47,31.12,RU,9.71,66.58,53,29,1601107893
111,oranjemund,-28.55,16.43,NA,12.28,59.47,57,2,1601107893
112,mysliborz,52.92,14.87,PL,1.99,55.0,100,100,1601107894
113,codrington,-38.27,141.97,AU,15.55,49.62,78,97,1601107894
114,ekhabi,53.51,142.97,RU,8.99,48.47,77,43,1601107894
115,kavaratti,10.57,72.64,IN,5.82,86.0,74,75,1601107895
116,castro,-24.79,-50.01,BR,2.86,56.61,81,5,1601107895
117,fortuna,40.6,-124.16,US,5.82,63.0,93,90,1601107895
118,yulara,-25.24,130.99,AU,8.05,82.4,12,0,1601107895
119,barrow,71.29,-156.79,US,11.41,32.0,99,90,1601107895
120,longyearbyen,78.22,15.64,SJ,3.24,28.4,79,75,1601107896
121,rudsar,37.14,50.29,IR,4.7,80.6,78,75,1601107896
122,sola,-13.88,167.55,VU,18.03,80.89,83,21,1601107896
123,manaure,11.78,-72.44,CO,9.19,83.07,77,97,1601107896
124,atuona,-9.8,-139.03,PF,18.57,77.72,72,0,1601107897
125,mahebourg,-20.41,57.7,MU,12.75,75.2,64,75,1601107897
126,arraial do cabo,-22.97,-42.03,BR,14.88,70.66,91,25,1601107897
127,butaritari,3.07,172.79,KI,14.72,82.13,72,19,1601107897
128,kuala terengganu,5.33,103.14,MY,9.17,89.6,66,20,1601107898
129,gao,16.64,1.64,ML,11.61,92.32,31,0,1601107898
130,ponta delgada,37.73,-25.67,PT,10.29,68.0,82,40,1601107898
131,tigil,57.8,158.67,RU,4.74,39.54,88,0,1601107898
132,oromocto,45.84,-66.48,CA,2.24,51.8,93,90,1601107862
133,avarua,-21.21,-159.78,CK,5.82,73.4,88,100,1601107899
134,hamilton,39.18,-84.53,US,5.82,64.99,87,1,1601107636
135,bowen,-20.02,148.23,AU,9.17,84.2,39,0,1601107899
136,lazaro cardenas,17.96,-102.2,MX,4.25,77.29,83,91,1601107899
137,peterhead,57.51,-1.8,GB,17.22,48.99,81,75,1601107900
138,watertown,42.37,-71.18,US,5.82,61.0,93,90,1601107900
139,santiago del estero,-27.8,-64.26,AR,6.26,78.42,44,0,1601107900
140,upernavik,72.79,-56.15,GL,3.78,26.56,86,100,1601107900
141,camacha,33.08,-16.33,PT,13.87,71.6,68,75,1601107900
142,pisco,-13.7,-76.22,PE,2.24,60.8,82,0,1601107901
143,dumbea,-22.15,166.45,NC,6.93,80.6,61,75,1601107901
144,provideniya,64.38,-173.3,RU,6.64,33.21,88,0,1601107901
145,tornio,65.85,24.15,FI,4.7,41.0,100,75,1601107901
146,kralendijk,12.15,-68.27,BQ,9.17,82.4,74,47,1601107902
147,atkarsk,51.87,45.01,RU,13.8,64.89,36,99,1601107902
148,alangayam,12.6,78.75,IN,6.49,80.4,68,100,1601107902
149,nouadhibou,20.93,-17.03,MR,10.29,75.2,73,29,1601107902
150,bambous virieux,-20.34,57.76,MU,12.75,77.0,64,75,1601107903
151,severo-kurilsk,50.68,156.12,RU,14.65,46.69,66,1,1601107903
152,husavik,66.04,-17.34,IS,27.51,48.2,61,75,1601107903
153,nikolskoye,59.7,30.79,RU,6.71,63.0,77,0,1601107903
154,mecca,21.43,39.83,SA,8.63,102.29,19,0,1601107904
155,laguna,38.42,-121.42,US,3.36,66.0,72,1,1601107904
156,yantal,56.85,105.25,RU,9.75,50.79,77,100,1601107904
157,esperance,-33.87,121.9,AU,10.29,68.0,42,40,1601107904
158,dali,25.7,100.18,CN,3.11,67.64,79,100,1601107905
159,panguna,-6.32,155.48,PG,2.3,70.48,93,100,1601107905
160,vila velha,-20.33,-40.29,BR,6.93,71.6,88,20,1601107651
161,palmer,42.16,-72.33,US,1.74,62.6,93,90,1601107905
162,ukiah,39.15,-123.21,US,4.9,62.6,67,1,1601107905
163,bethanien,-26.5,17.16,NA,3.96,55.15,46,19,1601107906
164,perelyub,51.87,50.37,RU,11.9,62.94,33,96,1601107906
165,sitka,57.05,-135.33,US,3.36,51.8,87,90,1601107906
166,saint anthony,45.02,-93.22,US,1.61,64.0,87,1,1601107906
167,itabira,-19.62,-43.23,BR,2.73,57.38,98,0,1601107907
168,sur,22.57,59.53,OM,8.28,93.67,32,0,1601107907
169,hervey bay,-25.3,152.85,AU,3.0,75.99,32,0,1601107653
170,chistogorskiy,53.98,87.38,RU,3.27,48.24,75,85,1601107907
171,thanh hoa,19.8,105.77,VN,11.23,88.56,72,99,1601107908
172,east london,-33.02,27.91,ZA,20.8,64.4,36,20,1601107908
173,kunya,12.22,8.53,NG,7.72,81.07,62,100,1601107908
174,qaqortoq,60.72,-46.03,GL,7.16,35.6,93,100,1601107908
175,kushima,31.46,131.23,JP,10.29,78.8,65,75,1601107909
176,souillac,-20.52,57.52,MU,12.75,75.2,64,75,1601107909
177,qaanaaq,77.48,-69.36,GL,7.05,12.09,78,29,1601107909
178,cherskiy,68.75,161.3,RU,0.98,34.12,92,62,1601107910
179,dikson,73.51,80.55,RU,34.78,43.03,93,100,1601107910
180,belmonte,-15.86,-38.88,BR,2.24,68.0,88,40,1601107910
181,san quintin,30.48,-115.95,MX,4.34,66.65,90,7,1601107910
182,tadine,-21.55,167.88,NC,10.63,73.26,91,12,1601107910
183,berezovyy,51.67,135.7,RU,2.82,56.1,72,3,1601107911
184,tyrma,50.08,132.17,RU,5.06,61.41,66,0,1601107911
185,busselton,-33.65,115.33,AU,2.33,60.01,68,100,1601107911
186,barabash,43.2,131.48,RU,11.18,68.0,49,1,1601107912
187,tacna,-18.01,-70.25,PE,1.63,61.0,74,67,1601107912
188,corbelia,-24.8,-53.31,BR,5.39,63.7,74,0,1601107912
189,iqaluit,63.75,-68.51,CA,13.87,26.6,86,40,1601107912
190,charters towers,-20.1,146.27,AU,3.83,82.92,18,0,1601107913
191,rock sound,24.9,-76.2,BS,11.5,82.8,77,98,1601107728
192,te anau,-45.42,167.72,NZ,6.46,45.59,90,71,1601107913
193,new norfolk,-42.78,147.06,AU,4.0,45.0,74,38,1601107913
194,muroto,33.28,134.15,JP,11.41,77.0,61,75,1601107914
195,sao luis do quitunde,-9.32,-35.56,BR,2.24,69.8,100,90,1601107914
196,timra,62.49,17.33,SE,9.17,46.99,87,100,1601107914
197,ayan,56.45,138.17,RU,8.39,51.03,76,90,1601107914
198,constitucion,-35.33,-72.42,CL,3.6,48.24,73,78,1601107914
199,qidong,31.81,121.66,CN,5.01,79.0,61,13,1601107915
200,anacortes,48.51,-122.61,US,5.82,54.0,93,40,1601107662
201,poum,-20.23,164.02,NC,13.22,76.73,84,1,1601107915
202,ribeira grande,38.52,-28.7,PT,6.93,66.2,88,75,1601107915
203,saint-pierre,-21.34,55.48,RE,10.29,80.6,51,75,1601107915
204,guerrero negro,27.98,-114.06,MX,8.41,68.27,90,0,1601107916
205,cherlak,54.16,74.81,RU,9.57,53.11,59,37,1601107916
206,irbil,36.19,44.01,IQ,1.12,93.2,20,0,1601107916
207,mollendo,-17.02,-72.01,PE,8.77,56.93,84,53,1601107916
208,sibolga,1.74,98.78,ID,3.04,79.75,80,100,1601107917
209,dezhou,37.45,116.29,CN,8.25,80.6,32,0,1601107917
210,aquiraz,-3.9,-38.39,BR,14.99,78.8,74,40,1601107917
211,coquimbo,-29.95,-71.34,CL,2.24,53.6,81,7,1601107918
212,kavieng,-2.57,150.8,PG,12.39,83.64,77,19,1601107918
213,waipawa,-41.41,175.52,NZ,26.4,59.0,77,100,1601107918
214,corrente,-3.74,-43.34,BR,4.23,73.18,91,52,1601107918
215,chhindwara,22.07,78.93,IN,0.45,83.79,60,86,1601107919
216,celestun,20.87,-90.4,MX,11.23,79.9,85,100,1601107919
217,chokurdakh,70.63,147.92,RU,8.97,41.72,66,0,1601107919
218,butembo,0.15,29.28,CD,1.66,59.2,100,100,1601107920
219,deputatskiy,69.3,139.9,RU,3.09,35.98,76,0,1601107920
220,lethem,3.38,-59.8,GY,8.34,75.87,80,60,1601107920
221,jijiga,9.35,42.8,ET,15.01,72.16,60,37,1601107920
222,aklavik,68.22,-135.01,CA,11.41,33.8,100,90,1601107921
223,kutum,14.2,24.67,SD,4.34,79.36,39,100,1601107921
224,filadelfia,39.95,-75.16,US,4.74,64.99,88,75,1601107654
225,shimoda,34.67,138.95,JP,13.87,68.0,100,75,1601107921
226,yuci,37.68,112.73,CN,2.24,75.2,38,68,1601107922
227,omboue,-1.57,9.26,GA,8.75,77.9,76,100,1601107922
228,labuhan,-6.88,112.21,ID,12.3,84.79,68,99,1601107922
229,bartica,6.4,-58.62,GY,4.7,77.0,88,20,1601107922
230,tres arroyos,-38.37,-60.28,AR,3.0,51.26,94,100,1601107922
231,bhim tal,29.35,79.57,IN,2.24,87.8,74,40,1601107923
232,kiunga,-6.12,141.29,PG,2.3,78.67,95,100,1601107923
233,merauke,-8.47,140.33,ID,20.11,81.01,74,2,1601107848
234,syumsi,57.11,51.61,RU,4.56,58.17,58,96,1601107924
235,capula,19.7,-101.8,MX,0.22,57.99,94,99,1601107924
236,ostrovnoy,68.05,39.51,RU,9.04,50.49,74,37,1601107924
237,havre-saint-pierre,50.23,-63.6,CA,7.49,28.4,92,1,1601107924
238,baykit,61.67,96.37,RU,5.93,54.3,49,0,1601107924
239,ulladulla,-35.35,150.47,AU,18.34,57.0,43,67,1601107925
240,san cristobal,7.77,-72.22,VE,1.77,65.44,76,67,1601107912
241,clyde river,70.47,-68.59,CA,11.41,30.2,86,90,1601107925
242,mahibadhoo,3.78,72.97,MV,10.42,82.51,74,95,1601107925
243,jieshi,22.81,115.83,CN,19.93,80.01,76,99,1601107925
244,bethel,41.37,-73.41,US,1.34,60.01,100,90,1601107926
245,cheremukhovo,60.35,59.99,RU,3.18,61.34,59,1,1601107926
246,quatre cocos,-20.21,57.76,MU,12.75,77.0,64,75,1601107926
247,carnarvon,-24.87,113.63,AU,14.99,73.4,53,0,1601107927
248,baghdad,33.34,44.4,IQ,8.05,100.4,21,0,1601107855
249,bilibino,68.05,166.44,RU,1.48,29.79,96,76,1601107927
250,tsiroanomandidy,-18.77,46.03,MG,1.16,91.96,26,0,1601107927
251,chincholi,17.47,77.43,IN,11.74,79.25,82,100,1601107927
252,narsaq,60.92,-46.05,GL,7.9,35.6,93,100,1601107928
253,tera,14.01,0.75,NE,13.2,86.81,52,4,1601107928
254,seoul,37.57,126.98,KR,6.93,77.0,46,75,1601107754
255,bonito,-21.12,-56.48,BR,3.56,71.29,38,0,1601107928
256,makakilo city,21.35,-158.09,US,3.36,80.6,65,1,1601107928
257,qingquan,30.45,115.26,CN,6.42,73.38,78,100,1601107929
258,khani,41.96,42.96,GE,3.36,71.6,88,90,1601107929
259,ust-maya,60.42,134.53,RU,9.28,55.81,53,0,1601107929
260,ahuimanu,21.44,-157.84,US,10.29,80.6,69,20,1601107929
261,kaeo,-35.1,173.78,NZ,8.01,63.0,90,91,1601107775
262,zhuhai,22.28,113.57,CN,18.34,86.0,79,40,1601107930
263,lata,40.16,-8.33,PT,4.29,57.0,85,10,1601107930
264,mugur-aksy,50.35,90.5,RU,1.83,34.84,69,100,1601107930
265,sheridan,44.83,-106.92,US,3.36,55.4,54,1,1601107931
266,vardo,70.37,31.11,NO,14.56,45.81,69,100,1601107931
267,ahipara,-35.17,173.17,NZ,12.35,61.39,87,91,1601107931
268,aracati,-4.56,-37.77,BR,8.16,71.74,80,7,1601107931
269,takoradi,4.88,-1.76,GH,8.46,76.89,87,100,1601107932
270,polis,35.04,32.43,CY,4.7,82.4,65,40,1601107932
271,hithadhoo,-0.6,73.08,MV,3.76,82.47,67,100,1601107932
272,kajaani,64.23,27.73,FI,9.17,57.2,87,100,1601107932
273,saint george,37.1,-113.58,US,3.36,73.4,16,1,1601107703
274,stornoway,58.21,-6.39,GB,8.05,48.0,81,40,1601107933
275,samarai,-10.62,150.67,PG,11.54,78.76,83,94,1601107933
276,hemnesberget,66.23,13.63,NO,5.32,35.01,100,83,1601107933
277,nizhniy kuranakh,58.84,125.49,RU,11.61,55.72,55,100,1601107927
278,fairbanks,64.84,-147.72,US,0.16,42.8,87,90,1601107772
279,dukat,62.55,155.55,RU,2.08,31.57,96,95,1601107934
280,chaiyaphum,15.75,102.0,TH,9.64,88.99,63,99,1601107934
281,north bend,43.41,-124.22,US,9.17,62.6,93,75,1601107934
282,quepos,9.42,-84.17,CR,2.24,68.0,100,97,1601107935
283,jalu,29.03,21.55,LY,11.23,94.69,16,0,1601107935
284,harrismith,-28.27,29.13,ZA,21.9,70.23,19,0,1601107935
285,touros,-5.2,-35.46,BR,3.36,69.8,94,40,1601107935
286,bud,39.45,-86.18,US,5.7,60.01,93,1,1601107936
287,norman wells,65.28,-126.83,CA,10.29,39.2,93,75,1601107936
288,rio verde de mato grosso,-18.92,-54.84,BR,6.55,78.94,28,0,1601107936
289,alice springs,-23.7,133.88,AU,10.29,77.0,16,0,1601107936
290,ouallam,14.32,2.09,NE,12.5,87.76,50,38,1601107937
291,bandarbeyla,9.49,50.81,SO,24.45,85.84,53,0,1601107937
292,bengkulu,-3.8,102.27,ID,5.59,81.84,79,88,1601107937
293,sawakin,19.11,37.33,SD,11.7,95.74,39,0,1601107808
294,geraldton,-28.77,114.6,AU,17.22,69.8,60,75,1601107937
295,batemans bay,-35.72,150.18,AU,5.01,61.0,69,35,1601107938
296,nola,40.92,14.53,IT,12.75,57.2,67,75,1601107938
297,acapulco,16.86,-99.89,MX,3.58,78.96,79,50,1601107938
298,jumla,29.27,82.18,NP,7.43,75.0,96,0,1601107938
299,ancud,-41.87,-73.82,CL,1.01,46.99,93,89,1601107939
300,inirida,3.87,-67.92,CO,1.57,71.62,97,100,1601107939
301,aksha,50.28,113.29,RU,12.1,59.81,35,21,1601107939
302,mayabon,9.1,123.17,PH,6.93,87.8,62,75,1601107939
303,gasa,31.5,34.47,PS,4.7,84.2,58,40,1601107940
304,wajid,3.81,43.25,SO,19.24,88.84,35,0,1601107940
305,greece,43.21,-77.69,US,5.82,64.99,87,1,1601107683
306,belem de sao francisco,-8.75,-38.97,BR,12.3,66.78,88,100,1601107940
307,mantua,45.17,10.78,IT,5.01,59.0,66,94,1601107940
308,orsha,54.52,30.41,BY,13.42,60.8,63,0,1601107941
309,port macquarie,-31.43,152.92,AU,3.0,62.01,24,0,1601107770
310,hefei,31.86,117.28,CN,6.71,77.0,57,75,1601107941
311,vershino-shakhtaminskiy,51.3,117.89,RU,8.48,63.09,51,64,1601107941
312,wittenberge,53.0,11.75,DE,2.1,51.01,90,100,1601107941
313,ozernovskiy,51.5,156.52,RU,13.11,47.28,69,0,1601107929
314,mar del plata,-38.0,-57.56,AR,8.05,52.0,100,40,1601107942
315,emporia,38.4,-96.18,US,6.93,66.2,93,1,1601107942
316,gweta,-20.18,25.23,BW,12.44,94.17,11,22,1601107942
317,chama,47.18,8.46,CH,14.99,46.99,65,90,1601107942
318,thunder bay,48.4,-89.32,CA,5.82,57.0,100,75,1601107900
319,kathu,7.92,98.33,TH,9.17,87.01,74,40,1601107943
320,portland,45.52,-122.68,US,6.6,57.2,93,90,1601107771
321,katsuura,35.13,140.3,JP,1.01,66.99,93,91,1601107748
322,amapa,1.0,-52.0,BR,1.05,70.86,98,82,1601107943
323,polonnaruwa,7.93,81.0,LK,11.21,97.52,39,52,1601107944
324,ziguinchor,12.58,-16.27,SN,6.93,73.4,100,75,1601107944
325,tura,25.52,90.22,IN,6.58,82.33,85,3,1601107944
326,plouzane,48.38,-4.62,FR,4.7,50.0,100,90,1601107945
327,olds,51.78,-114.1,CA,4.0,45.0,56,97,1601107945
328,paciran,-6.88,112.38,ID,11.79,86.05,64,91,1601107945
329,rocha,-34.48,-54.33,UY,8.57,56.93,92,100,1601107706
330,ixtapa,20.7,-105.2,MX,1.63,79.0,90,93,1601107945
331,morehead,37.27,-87.18,US,4.18,61.0,96,90,1601107946
332,northam,51.03,-4.22,GB,11.01,51.01,73,0,1601107946
333,zyryanka,65.75,150.85,RU,9.84,45.93,58,9,1601107946
334,sinnamary,5.38,-52.95,GF,7.2,77.59,87,100,1601107656
335,isangel,-19.55,169.27,VU,10.56,75.04,87,7,1601107946
336,mackenzie,55.3,-123.17,CA,10.29,48.2,66,90,1601107947
337,marrakesh,31.63,-8.01,MA,5.82,66.2,68,100,1601107947
338,boende,-0.22,20.87,CD,3.96,82.83,64,78,1601107947
339,garissa,-0.45,39.64,KE,16.42,87.26,40,47,1601107947
340,carlos chagas,-17.7,-40.77,BR,1.16,66.88,94,52,1601107947
341,flin flon,54.77,-101.86,CA,3.96,46.56,78,0,1601107948
342,kudahuvadhoo,2.67,72.89,MV,8.21,83.17,68,100,1601107948
343,gualaquiza,-3.4,-78.55,EC,2.37,57.47,87,30,1601107948
344,puerto escondido,15.85,-97.07,MX,4.41,79.25,81,98,1601107949
345,tiksi,71.69,128.87,RU,10.89,46.6,55,0,1601107949
346,hofn,64.25,-15.21,IS,20.33,46.15,77,100,1601107949
347,weiser,44.25,-116.97,US,8.05,60.8,59,90,1601107950
348,cumra,37.57,32.77,TR,2.24,69.8,52,0,1601107950
349,kvarkeno,52.08,59.73,RU,4.09,55.2,44,0,1601107950
350,sioux lookout,50.1,-91.92,CA,3.36,53.6,100,90,1601107950
351,bonham,33.58,-96.18,US,8.05,62.6,93,1,1601107950
352,saurimo,-9.66,20.39,AO,5.14,82.2,49,0,1601107951
353,portales,34.19,-103.33,US,9.17,71.01,28,1,1601107951
354,banda aceh,5.56,95.32,ID,10.92,84.96,64,85,1601107951
355,santa vitoria do palmar,-33.52,-53.37,BR,6.26,58.86,92,100,1601107952
356,mikkeli,61.69,27.27,FI,5.82,57.2,82,0,1601107952
357,evensk,61.95,159.23,RU,6.78,44.42,63,35,1601107952
358,marataizes,-21.04,-40.82,BR,6.98,70.0,84,0,1601107917
359,tiarei,-17.53,-149.33,PF,3.36,75.2,83,20,1601107952
360,poya,-21.35,165.15,NC,1.92,76.26,78,88,1601107953
361,kieta,-6.22,155.63,PG,4.32,81.05,72,100,1601107953
362,nanortalik,60.14,-45.24,GL,11.3,37.63,90,100,1601107953
363,mount pleasant,32.79,-79.86,US,5.77,73.99,100,75,1601107954
364,taoudenni,22.68,-3.98,ML,7.09,96.49,10,0,1601107954
365,tazovskiy,67.47,78.7,RU,15.12,47.73,69,99,1601107954
366,pychas,56.5,52.44,RU,5.3,61.0,60,93,1601107954
367,ginir,7.13,40.7,ET,5.3,70.81,63,2,1601107954
368,broken hill,-31.95,141.43,AU,10.29,57.2,41,75,1601107955
369,orumiyeh,37.55,45.08,IR,4.7,75.2,36,0,1601107955
370,redlands,34.06,-117.18,US,0.25,68.0,56,1,1601107955
371,aasiaat,68.71,-52.87,GL,9.06,33.17,92,100,1601107955
372,mossendjo,-2.95,12.73,CG,4.12,75.97,72,100,1601107956
373,tagusao,9.19,117.81,PH,11.34,84.25,77,87,1601107956
374,tacuarembo,-31.73,-55.98,UY,9.24,59.34,94,100,1601107956
375,pandan,14.05,124.17,PH,6.38,85.12,77,92,1601107956
376,stirion,38.4,22.72,GR,4.0,82.0,63,37,1601107957
377,kupang,-10.17,123.58,ID,10.29,86.0,70,20,1601107699
378,saldanha,-33.01,17.94,ZA,9.17,55.4,66,47,1601107957
379,tabou,4.42,-7.35,CI,11.14,77.22,86,75,1601107957
380,inuvik,68.35,-133.72,CA,11.41,33.8,100,90,1601107958
381,mweka,-4.85,21.57,CD,4.65,80.49,65,100,1601107958
382,chapais,49.78,-74.85,CA,9.17,50.0,100,90,1601107958
383,nanakuli,21.39,-158.15,US,3.36,80.01,65,1,1601107958
384,uglegorsk,49.08,142.03,RU,4.7,56.41,60,100,1601107958
385,hami,42.8,93.45,CN,6.38,72.59,21,0,1601107959
386,srednekolymsk,67.45,153.68,RU,6.69,43.81,62,38,1601107959
387,mayo,38.89,-76.51,US,3.36,63.0,100,90,1601107959
388,tautira,-17.73,-149.15,PF,3.36,75.2,83,20,1601107959
389,arkhipo-osipovka,44.37,38.52,RU,7.52,75.24,67,77,1601107960
390,oranjestad,12.52,-70.03,AW,10.29,82.4,78,20,1601107930
391,boca do acre,-8.75,-67.4,BR,3.22,72.63,96,90,1601107960
392,matongo,-2.38,34.08,TZ,3.33,89.35,28,7,1601107960
393,aloleng,16.13,119.78,PH,12.15,83.91,79,100,1601107961
394,flinders,-34.58,150.86,AU,5.99,57.99,50,0,1601107961
395,george,-33.96,22.46,ZA,24.16,59.0,44,80,1601107961
396,hasaki,35.73,140.83,JP,14.99,68.0,82,75,1601107961
397,zarubino,42.63,131.09,RU,5.68,62.02,76,6,1601107962
398,bosaso,11.28,49.18,SO,11.41,93.2,56,0,1601107962
399,luderitz,-26.65,15.16,NA,20.38,62.47,54,5,1601107962
400,forest grove,45.52,-123.11,US,3.91,55.0,100,90,1601107962
401,ca mau,9.18,105.15,VN,11.03,85.46,68,99,1601107707
402,ludwigsfelde,52.3,13.27,DE,10.29,50.0,87,100,1601107963
403,ribeira brava,32.65,-17.07,PT,11.41,71.6,78,75,1601107963
404,panaba,21.28,-88.27,MX,5.06,76.19,95,100,1601107963
405,santa isabel,-23.32,-46.22,BR,2.24,57.2,87,45,1601107963
406,gaziantep,37.06,37.38,TR,3.36,78.8,47,0,1601107964
407,batagay,67.63,134.63,RU,4.63,45.09,57,0,1601107964
408,saint-francois,46.42,3.91,FR,8.05,48.99,87,100,1601107964
409,shahrud,36.42,54.98,IR,3.38,79.38,23,0,1601107964
410,bogo,11.05,124.01,PH,7.49,85.84,74,85,1601107965
411,salalah,17.02,54.09,OM,10.29,84.2,62,75,1601107965
412,buchanan,5.88,-10.05,LR,8.77,75.54,89,100,1601107965
413,aksarayskiy,46.79,48.01,RU,24.61,71.6,30,8,1601107965
414,cayenne,4.93,-52.33,GF,7.61,73.4,100,36,1601107966
415,yucca valley,34.11,-116.43,US,1.45,78.01,14,0,1601107966
416,yaan,7.38,8.57,NG,2.98,71.8,97,100,1601107966
417,renningen,48.77,8.93,DE,10.29,46.0,87,75,1601107966
418,avera,33.19,-82.53,US,3.36,68.0,98,90,1601107967
419,krasnoselkup,65.7,82.47,RU,6.82,48.63,68,91,1601107967
420,tecolutilla,18.28,-93.32,MX,2.19,76.5,91,100,1601107967
421,plettenberg bay,-34.05,23.37,ZA,22.59,58.03,48,10,1601107967
422,aswan,24.09,32.91,EG,15.59,96.26,20,0,1601107875
423,hanzhong,33.07,107.03,CN,2.93,67.64,74,100,1601107968
424,nuuk,64.18,-51.72,GL,3.36,37.0,93,51,1601107858
425,padang,-0.95,100.35,ID,4.54,76.48,85,100,1601107968
426,vestmanna,62.16,-7.17,FO,6.42,41.0,93,34,1601107969
427,orje,59.48,11.66,NO,3.0,44.01,95,100,1601107969
428,hammerfest,70.66,23.68,NO,33.33,39.2,86,75,1601107969
429,shanhetun,44.7,127.2,CN,3.24,67.6,70,0,1601107969
430,basco,20.45,121.97,PH,11.23,83.84,78,47,1601107970
431,cap malheureux,-19.98,57.61,MU,11.01,77.0,56,79,1601107970
432,tripoli,32.88,13.19,LY,18.21,77.14,64,100,1601107970
433,petersburg,37.23,-77.4,US,1.74,62.01,100,90,1601107970
434,ilhabela,-23.78,-45.36,BR,1.92,69.01,87,23,1601107971
435,guozhen,34.37,107.36,CN,8.25,77.38,48,77,1601107971
436,carcavelos,38.69,-9.32,PT,18.34,63.0,77,0,1601107971
437,koumac,-20.57,164.28,NC,8.12,76.55,79,79,1601107972
438,mhango,-3.28,32.85,TZ,3.53,84.99,37,42,1601107972
439,verkhnyaya inta,65.98,60.31,RU,22.15,56.55,78,97,1601107972
440,holbaek,55.72,11.72,DK,6.98,55.0,89,83,1601107972
441,huarmey,-10.07,-78.15,PE,6.42,60.35,84,80,1601107973
442,bonthe,7.53,-12.51,SL,3.44,74.07,94,100,1601107973
443,nome,64.5,-165.41,US,6.93,28.4,74,20,1601107973
444,smithers,54.78,-127.17,CA,5.82,46.4,81,90,1601107960
445,golub-dobrzyn,53.11,19.05,PL,4.0,62.01,72,100,1601107974
446,phalodi,27.13,72.37,IN,13.24,95.59,21,0,1601107974
447,gurupi,-11.73,-49.07,BR,2.55,76.01,53,4,1601107974
448,santa luzia,-19.77,-43.85,BR,3.36,64.4,82,0,1601107691
449,russell,32.35,-85.2,US,2.71,66.2,100,90,1601107975
450,zyryanovsk,49.74,84.27,KZ,2.08,48.06,54,96,1601107975
451,methoni,36.82,21.7,GR,19.46,82.4,65,40,1601107975
452,creston,41.06,-94.36,US,9.17,66.2,100,3,1601107976
453,anda,46.4,125.32,CN,5.57,69.04,60,45,1601107976
454,carauari,-4.88,-66.9,BR,2.26,72.25,98,100,1601107976
455,rosita,13.93,-84.4,NI,1.28,72.23,92,55,1601107976
456,santa isabel do rio negro,-0.41,-65.02,BR,1.12,72.14,96,100,1601107977
457,pasighat,28.07,95.33,IN,4.74,75.0,88,100,1601107977
458,isla vista,34.41,-119.86,US,2.55,68.0,90,0,1601107977
459,fort nelson,58.81,-122.7,CA,2.24,46.4,93,90,1601107978
460,nanyang,32.99,112.53,CN,10.49,78.22,53,100,1601107978
461,twentynine palms,34.14,-116.05,US,8.05,75.99,18,1,1601107978
462,mandalgovi,45.76,106.27,MN,9.8,59.14,32,95,1601107979
463,najran,17.49,44.13,SA,4.7,89.6,12,0,1601107875
464,harper,4.38,-7.72,LR,11.81,77.47,86,74,1601107979
465,vryburg,-26.96,24.73,ZA,15.55,62.11,31,0,1601107979
466,oga,46.46,10.35,IT,2.24,46.99,86,75,1601107979
467,digha,21.68,87.55,IN,13.94,88.25,75,100,1601107980
468,komsomolskiy,40.43,71.72,UZ,4.7,73.4,25,17,1601107980
469,egvekinot,66.32,-179.17,RU,7.81,28.8,90,84,1601107980
470,thayetmyo,19.32,95.18,MM,7.14,86.18,76,18,1601107980
471,chinhoyi,-17.37,30.2,ZW,4.56,90.01,16,0,1601107981
472,pacifica,37.61,-122.49,US,8.05,62.01,82,1,1601107981
473,anadyr,64.75,177.48,RU,4.47,26.6,79,1,1601107981
474,mangan,27.52,88.53,IN,5.44,84.38,44,100,1601107981
475,dauriya,49.93,116.87,RU,21.39,60.37,60,57,1601107982
476,leshukonskoye,64.9,45.76,RU,6.42,59.11,71,28,1601107982
477,rio grande,-32.03,-52.1,BR,1.01,63.0,97,100,1601107829
478,nenjiang,49.18,125.22,CN,10.27,64.47,72,100,1601107982
479,ndende,-2.4,11.36,GA,2.01,78.39,74,100,1601107983
480,assiniboia,49.63,-105.98,CA,14.67,55.33,48,77,1601107983
481,tallahassee,30.44,-84.28,US,3.42,72.0,94,1,1601107983
482,hornepayne,49.21,-84.77,CA,3.74,53.02,97,72,1601107983
483,pangody,65.85,74.49,RU,13.04,49.68,69,6,1601107984
484,pafos,34.77,32.42,CY,4.7,82.4,65,40,1601107984
485,mehamn,71.04,27.85,NO,20.4,44.82,64,100,1601107984
486,naraina,26.78,75.2,IN,4.7,91.4,52,40,1601107984
487,arlit,18.74,7.39,NE,8.97,92.82,11,0,1601107985
488,santa fe,-31.63,-60.7,AR,4.0,70.0,80,93,1601107951
489,gat,31.61,34.76,IL,1.01,82.0,68,46,1601107985
490,malim,7.45,123.43,PH,5.88,84.49,72,100,1601107985
491,katherine,-14.47,132.27,AU,5.82,98.6,27,75,1601107986
492,huaihua,27.55,109.96,CN,4.45,61.57,93,100,1601107986
493,talnakh,69.49,88.4,RU,17.9,42.8,75,40,1601107986
494,ambunti,-4.24,142.84,PG,2.71,77.99,95,100,1601107986
495,maceio,-9.67,-35.74,BR,2.24,69.8,100,90,1601107987
496,erdenet,49.03,104.08,MN,14.29,48.85,47,0,1601107987
497,novopskov,49.55,39.09,UA,17.0,73.99,21,81,1601107987
498,pascagoula,30.37,-88.56,US,5.37,68.0,88,1,1601107987
499,oxbow,49.23,-102.17,CA,1.01,55.99,62,100,1601107988
500,lokosovo,61.13,74.82,RU,6.55,52.3,57,4,1601107988
501,zavyalovo,54.51,82.45,RU,6.71,50.0,57,40,1601107988
502,teahupoo,-17.83,-149.27,PF,3.36,75.2,83,20,1601107988
503,san lorenzo,-25.33,-57.53,PY,5.82,80.6,42,1,1601107988
504,forio,40.73,13.86,IT,11.41,62.01,77,75,1601107989
505,oussouye,12.48,-16.55,SN,11.41,78.8,88,43,1601107989
506,williston,48.15,-103.62,US,17.85,61.0,47,43,1601107898
507,kirakira,-10.45,161.92,SB,10.13,80.08,83,100,1601107989
508,japura,-0.32,102.35,ID,4.29,72.75,95,100,1601107990
509,lompoc,34.64,-120.46,US,5.82,57.2,93,40,1601107990
510,havoysund,71.0,24.66,NO,33.33,39.2,86,75,1601107990
511,san patricio,19.22,-104.7,MX,3.67,77.36,83,0,1601107990
512,ondjiva,-17.07,15.73,AO,7.05,81.39,15,0,1601107991
513,praya,14.92,-23.51,CV,6.93,78.8,88,40,1601107991
514,salonta,46.8,21.65,RO,6.93,61.0,93,40,1601107991
515,boyolangu,-8.12,111.89,ID,11.52,83.25,64,23,1601107991
516,severodvinsk,64.56,39.83,RU,4.47,59.0,67,97,1601107992
517,gbadolite,4.28,21.02,CD,4.25,80.38,73,54,1601107992
518,duayaw nkwanta,7.17,-2.1,GH,3.56,71.26,95,99,1601107992
519,jalpaiguri,26.52,88.73,IN,4.61,89.6,63,83,1601107939
520,hue,16.47,107.6,VN,10.29,93.2,59,20,1601107992
521,gosainganj,26.58,82.38,IN,4.85,91.54,51,0,1601107993
522,miles city,46.41,-105.84,US,12.75,62.6,36,1,1601107989
523,lixourion,38.2,20.43,GR,8.05,77.0,78,75,1601107993
524,zhigansk,66.77,123.37,RU,12.03,43.38,87,100,1601107926
525,kisangani,0.52,25.2,CD,4.7,78.8,83,20,1601107993
526,nemuro,43.32,145.57,JP,17.22,53.6,93,75,1601107990
527,aksu,41.12,80.26,CN,14.92,75.79,19,0,1601107994
528,xining,36.62,101.77,CN,9.22,67.93,33,5,1601107994
529,barcelos,41.54,-8.62,PT,2.98,55.99,87,20,1601107994
530,maniitsoq,65.42,-52.9,GL,5.86,39.09,79,100,1601107995
531,trairi,-3.28,-39.27,BR,14.32,77.58,77,100,1601107995
532,sao felix do xingu,-6.64,-51.99,BR,2.08,69.93,96,94,1601107995
533,chulman,56.85,124.91,RU,14.41,47.95,77,100,1601107995
534,pauini,-7.71,-66.98,BR,1.77,73.2,96,100,1601107996
535,southbridge,42.08,-72.03,US,2.59,59.0,99,1,1601107996
536,port keats,-14.25,129.55,AU,8.14,84.87,67,100,1601107996
537,rawson,-43.3,-65.1,AR,9.89,52.95,52,0,1601107996
538,pontianak,-0.03,109.33,ID,4.52,81.34,85,97,1601107997
539,manakara,-22.13,48.02,MG,13.18,78.22,58,0,1601107997
540,bizhbulyak,53.7,54.26,RU,4.63,58.82,44,29,1601107997
541,golynki,54.87,31.39,RU,14.61,62.69,65,0,1601107997
542,akranes,64.32,-22.07,IS,19.46,50.0,81,90,1601107998
543,pierre,44.37,-100.35,US,6.93,64.0,44,1,1601107998
544,cervo,43.67,-7.41,ES,14.45,60.01,1,92,1601107998
545,nishihara,26.18,127.76,JP,11.41,82.4,69,75,1601107998
546,plyussa,58.43,29.37,RU,9.93,65.34,63,0,1601107999
547,bose,45.46,8.01,IT,1.99,63.0,29,86,1601107999
548,tiznit,29.58,-9.5,MA,3.44,76.55,44,0,1601107999
549,ardahan,41.11,42.7,TR,5.37,63.32,51,96,1601107999
550,sao joao da ponte,-15.93,-44.01,BR,6.29,63.25,77,0,1601108000
551,montepuez,-13.13,39.0,MZ,6.93,87.01,28,0,1601108000
552,jidong,45.22,131.08,CN,6.69,61.39,75,73,1601108000
553,baherden,38.44,57.43,TM,12.19,81.19,15,0,1601108000
554,lima,-12.04,-77.03,PE,11.41,60.8,82,90,1601107770
555,teguldet,57.31,88.17,RU,6.71,43.88,89,100,1601108001
556,olinda,-8.01,-34.86,BR,6.93,78.8,69,40,1601108001
557,eskisehir,39.78,30.52,TR,10.29,66.2,63,25,1601107965
558,chitral,35.85,71.79,PK,9.78,74.62,27,19,1601108001
559,barberton,-25.79,31.05,ZA,14.99,84.99,28,0,1601108002
560,vydrino,51.48,104.85,RU,10.69,50.77,62,100,1601108002
561,lorengau,-2.02,147.27,PG,8.3,82.99,80,46,1601108002
562,shingu,33.73,135.98,JP,13.87,77.0,73,75,1601108002
563,burnie,-41.07,145.92,AU,18.01,48.0,68,54,1601108003
564,vigrestad,58.57,5.7,NO,1.99,53.01,72,100,1601108003
565,linares,-35.85,-71.6,CL,2.17,48.18,81,95,1601108003
566,yoichi,43.2,140.77,JP,9.17,66.2,63,75,1601108003
567,manjacaze,-24.71,33.88,MZ,7.85,88.34,35,0,1601108004
568,dalbandin,28.89,64.41,PK,8.99,90.19,9,0,1601108004
569,vanimo,-2.67,141.3,PG,4.9,81.99,74,12,1601108004
570,roald,62.58,6.13,NO,25.28,48.2,66,40,1601108005
571,rafai,4.95,23.92,CF,4.21,81.27,65,97,1601108005
572,antalaha,-14.9,50.28,MG,9.19,77.95,57,6,1601108006
573,sakakah,29.97,40.21,SA,12.75,86.0,27,0,1601108006
574,wahpeton,46.27,-96.61,US,4.74,59.0,58,1,1601108006
575,marsa matruh,31.35,27.25,EG,3.42,78.8,65,0,1601108006
