City_ID,City,Latitude,Longitude,Country,Wind Speed,Max Temp,Humidity,Cloudiness,Date
0,avarua,-21.21,-159.78,CK,2.24,71.6,94,100,1601110256
1,roald,62.58,6.13,NO,26.4,48.2,70,40,1601110256
2,kasempa,-13.46,25.83,ZM,1.81,102.15,11,78,1601110257
3,tuatapere,-46.13,167.68,NZ,5.01,52.0,74,56,1601110206
4,kapaa,22.08,-159.32,US,13.87,80.6,74,20,1601110257
5,topeka,39.05,-95.68,US,11.41,68.0,88,1,1601110257
6,dasoguz,41.84,59.97,TM,16.11,68.0,21,0,1601110257
7,mataura,-46.19,168.86,NZ,5.01,52.0,74,10,1601110258
8,ushuaia,-54.8,-68.3,AR,18.34,37.4,86,40,1601110149
9,medina,24.47,39.61,SA,2.3,100.4,6,0,1601110258
10,xiaoshan,30.17,120.26,CN,4.47,79.0,54,40,1601110075
11,hasaki,35.73,140.83,JP,12.75,68.0,82,75,1601110258
12,rikitea,-23.12,-134.97,PF,14.34,73.78,84,28,1601110259
13,nabire,-3.37,135.48,ID,1.7,78.98,84,99,1601110150
14,port blair,11.67,92.75,IN,13.0,84.92,71,29,1601110259
15,lokosovo,61.13,74.82,RU,6.98,52.88,57,3,1601110259
16,launceston,-41.45,147.17,AU,16.11,48.0,78,75,1601110260
17,torbay,47.67,-52.73,CA,16.11,46.0,75,5,1601110260
18,camacha,33.08,-16.33,PT,11.41,69.8,83,75,1601110260
19,xingyi,24.19,102.82,CN,3.85,70.95,85,99,1601110261
20,mar del plata,-38.0,-57.56,AR,5.01,52.0,100,88,1601110064
21,busselton,-33.65,115.33,AU,3.22,55.99,95,100,1601110063
22,brownsville,25.9,-97.5,US,4.7,77.0,88,20,1601110261
23,kruisfontein,-34.0,24.73,ZA,14.0,64.0,35,0,1601110262
24,upernavik,72.79,-56.15,GL,2.98,26.71,86,100,1601110262
25,omboue,-1.57,9.26,GA,9.24,78.84,73,100,1601110262
26,albany,42.6,-73.97,US,2.37,60.01,87,0,1601110259
27,port hardy,50.7,-127.42,CA,6.93,50.0,93,40,1601110263
28,kilindoni,-7.91,39.67,TZ,9.31,78.93,72,18,1601110263
29,saint george,37.1,-113.58,US,1.9,73.4,17,1,1601110197
30,dikson,73.51,80.55,RU,32.79,44.35,95,100,1601110264
31,cape town,-33.93,18.42,ZA,4.7,57.99,71,75,1601110074
32,punta arenas,-53.15,-70.92,CL,26.4,42.8,70,52,1601110264
33,klaksvik,62.23,-6.59,FO,3.36,44.6,87,62,1601110265
34,anadyr,64.75,177.48,RU,6.71,28.4,74,10,1601110265
35,bluff,-46.6,168.33,NZ,5.01,52.0,74,83,1601110265
36,owando,-0.48,15.9,CG,3.94,78.48,85,88,1601110265
37,christchurch,-43.53,172.63,NZ,13.87,60.01,38,100,1601110265
38,hermanus,-34.42,19.23,ZA,13.0,57.0,66,38,1601110266
39,bereda,43.27,-7.54,ES,10.0,57.99,98,98,1601110266
40,ugoofaaru,5.67,73.0,MV,11.86,81.72,79,97,1601110266
41,englewood,39.65,-104.99,US,5.82,68.0,25,75,1601110136
42,tasiilaq,65.61,-37.64,GL,16.11,33.8,86,100,1601110267
43,alice springs,-23.7,133.88,AU,10.29,77.0,16,0,1601110108
44,nouakchott,18.09,-15.98,MR,12.75,84.2,79,36,1601110268
45,havoysund,71.0,24.66,NO,26.4,41.0,75,75,1601110268
46,jamestown,42.1,-79.24,US,3.36,55.4,93,1,1601110268
47,souillac,-20.52,57.52,MU,12.75,75.2,64,75,1601110268
48,manadhoo,5.77,73.38,MV,12.01,81.57,80,87,1601110268
49,lima,-12.04,-77.03,PE,6.93,60.8,82,40,1601110227
50,tiksi,71.69,128.87,RU,10.85,44.83,58,0,1601110269
51,airai,-8.93,125.41,TL,2.77,69.6,71,100,1601110269
52,biu,10.61,12.19,NG,7.52,77.74,76,100,1601110269
53,vao,-22.67,167.48,NC,18.77,72.81,91,14,1601110270
54,iqaluit,63.75,-68.51,CA,13.87,26.6,92,40,1601110258
55,hovd,48.01,91.64,MN,7.47,48.2,42,35,1601110270
56,revelstoke,50.98,-118.2,CA,3.36,46.4,100,90,1601110270
57,saldanha,-33.01,17.94,ZA,9.17,55.4,66,56,1601110270
58,saint-philippe,-21.36,55.77,RE,6.93,77.0,53,75,1601110271
59,ribeira grande,38.52,-28.7,PT,5.82,68.0,82,75,1601110271
60,port lincoln,-34.73,135.87,AU,7.83,51.03,63,64,1601110271
61,chuy,-33.7,-53.46,UY,8.46,58.66,93,100,1601110266
62,elbistan,38.21,37.2,TR,0.78,77.04,32,0,1601110272
63,nishihara,26.18,127.76,JP,12.75,80.6,74,75,1601110272
64,palmer,42.16,-72.33,US,1.81,62.6,93,90,1601110272
65,hofn,64.25,-15.21,IS,21.0,46.38,78,100,1601110273
66,blagoyevo,63.37,47.92,RU,6.8,63.72,69,51,1601110273
67,goleniow,53.56,14.83,PL,8.05,57.0,93,75,1601110273
68,puerto ayora,-0.74,-90.35,EC,5.01,68.0,88,99,1601110274
69,san javier,37.81,-0.84,ES,12.75,69.8,28,0,1601110274
70,ust-omchug,61.15,149.63,RU,3.74,35.42,81,0,1601110274
71,hilo,19.73,-155.09,US,5.82,73.4,78,90,1601110274
72,pochutla,15.74,-96.47,MX,2.84,75.04,89,87,1601110275
73,waukesha,43.03,-88.3,US,10.29,66.0,77,1,1601110275
74,victoria,22.29,114.16,HK,18.97,84.99,74,94,1601110070
75,lebu,-37.62,-73.65,CL,5.19,45.48,83,63,1601110276
76,saint-pierre,-21.34,55.48,RE,6.93,77.0,53,75,1601110276
77,port elizabeth,-33.92,25.57,ZA,36.91,60.8,38,20,1601109996
78,oistins,13.07,-59.53,BB,5.82,80.6,83,20,1601110277
79,nemuro,43.32,145.57,JP,14.99,51.8,100,75,1601110277
80,umm lajj,25.02,37.27,SA,15.57,91.87,50,0,1601110277
81,narrabri,-30.32,149.78,AU,10.29,57.2,30,0,1601110277
82,naze,28.37,129.48,JP,8.05,80.6,78,75,1601110278
83,castro,-24.79,-50.01,BR,3.06,56.08,82,28,1601110187
84,bethel,41.37,-73.41,US,1.16,60.8,100,90,1601110278
85,qaanaaq,77.48,-69.36,GL,7.14,12.27,78,49,1601110278
86,mayo,38.89,-76.51,US,4.7,63.0,100,90,1601110279
87,east london,-33.02,27.91,ZA,20.8,64.4,36,20,1601110279
88,norman wells,65.28,-126.83,CA,8.05,39.2,93,90,1601110279
89,deputatskiy,69.3,139.9,RU,3.22,33.98,84,2,1601110280
90,thompson,55.74,-97.86,CA,5.82,46.4,93,75,1601110280
91,port alfred,-33.59,26.89,ZA,26.33,63.12,38,93,1601110280
92,yellowknife,62.46,-114.35,CA,8.05,44.6,87,90,1601110281
93,nalgonda,17.05,79.27,IN,15.55,75.45,89,100,1601110281
94,touros,-5.2,-35.46,BR,4.7,69.8,94,75,1601110281
95,san patricio,19.22,-104.7,MX,3.69,77.36,83,3,1601110281
96,bonthe,7.53,-12.51,SL,4.99,75.51,90,100,1601110282
97,bridlington,54.08,-0.19,GB,16.11,48.99,75,100,1601110282
98,asau,46.43,26.4,RO,8.88,66.0,86,89,1601110282
99,zhigansk,66.77,123.37,RU,9.55,42.6,92,100,1601110283
100,cabedelo,-6.98,-34.83,BR,12.17,69.8,100,40,1601110283
101,bosaso,11.28,49.18,SO,14.99,93.2,63,20,1601110283
102,morehead,37.27,-87.18,US,4.76,62.01,97,90,1601110284
103,hobart,-42.88,147.33,AU,23.04,44.6,65,40,1601110222
104,turochak,52.26,87.12,RU,3.4,40.98,90,98,1601110284
105,bulgan,48.81,103.53,MN,12.19,49.87,46,0,1601110284
106,vila franca do campo,37.72,-25.43,PT,9.17,68.0,82,40,1601110285
107,shimoda,34.67,138.95,JP,12.75,68.0,94,75,1601110285
108,raduzhnyy,62.1,77.47,RU,8.16,51.48,58,82,1601110285
109,ilulissat,69.22,-51.1,GL,6.93,33.8,86,100,1601110285
110,lagoa,39.05,-27.98,PT,9.84,68.36,75,15,1601110285
111,sistranda,63.73,8.83,NO,12.75,44.6,75,20,1601110286
112,georgetown,5.41,100.34,MY,6.93,84.2,66,20,1601110287
113,lorengau,-2.02,147.27,PG,9.19,82.89,79,62,1601110287
114,new norfolk,-42.78,147.06,AU,1.01,44.01,77,41,1601110287
115,biberach,48.09,9.79,DE,21.92,45.0,75,100,1601110287
116,chapais,49.78,-74.85,CA,9.17,51.8,93,90,1601110288
117,opuwo,-18.06,13.84,NA,1.07,86.43,13,0,1601110288
118,sur,22.57,59.53,OM,8.05,93.54,32,0,1601110289
119,vila,42.03,-8.16,PT,3.74,53.01,89,91,1601110289
120,hithadhoo,-0.6,73.08,MV,3.96,82.53,67,100,1601110289
121,chokurdakh,70.63,147.92,RU,9.33,40.51,69,0,1601110290
122,vaini,-21.2,-175.2,TO,9.17,73.4,83,40,1601110290
123,sabha,27.04,14.43,LY,10.36,96.24,15,0,1601110290
124,beloha,-25.17,45.05,MG,10.33,93.63,20,0,1601110290
125,cherskiy,68.75,161.3,RU,2.06,34.57,91,62,1601110291
126,joensuu,62.6,29.76,FI,9.17,57.2,76,0,1601110291
127,melhus,63.29,10.28,NO,4.0,46.0,73,100,1601110291
128,tuktoyaktuk,69.45,-133.04,CA,14.23,33.01,95,100,1601110291
129,saskylakh,71.92,114.08,RU,8.41,42.37,69,82,1601110292
130,esperance,-33.87,121.9,AU,10.29,66.2,42,90,1601110292
131,barra do garcas,-15.89,-52.26,BR,2.42,77.2,48,49,1601110292
132,paracuru,-3.41,-39.03,BR,16.11,78.8,74,40,1601110293
133,nyurba,63.28,118.33,RU,3.91,50.18,67,0,1601110293
134,camabatela,-8.19,15.38,AO,3.62,74.19,66,59,1601110293
135,varna,43.22,27.92,BG,10.29,82.0,51,17,1601110294
136,poum,-20.23,164.02,NC,11.18,76.59,84,0,1601110294
137,mana,5.66,-53.78,GF,6.31,77.38,89,99,1601110294
138,warmbad,-28.45,18.73,NA,8.48,56.41,39,5,1601110295
139,ponta do sol,32.67,-17.1,PT,16.11,73.0,73,75,1601110295
140,bredasdorp,-34.53,20.04,ZA,12.75,50.0,87,8,1601110295
141,saurimo,-9.66,20.39,AO,6.93,75.2,73,40,1601110296
142,ha tinh,18.33,105.9,VN,8.66,87.6,71,9,1601110296
143,saint anthony,45.02,-93.22,US,1.9,64.0,87,1,1601110296
144,ancud,-41.87,-73.82,CL,1.01,46.99,94,93,1601110297
145,kautokeino,69.01,23.04,NO,11.05,42.22,70,100,1601110297
146,puro,12.48,123.38,PH,6.4,84.63,77,100,1601110297
147,kaitangata,-46.28,169.85,NZ,5.01,54.0,68,15,1601110297
148,labuhan,-6.88,112.21,ID,11.9,84.69,68,99,1601110298
149,xai-xai,-25.05,33.64,MZ,5.08,89.42,35,0,1601110298
150,salinas,36.68,-121.66,US,3.36,60.8,82,1,1601110022
151,fort nelson,58.81,-122.7,CA,2.24,44.6,100,90,1601110259
152,wajima,37.4,136.9,JP,2.24,66.2,93,75,1601110299
153,pevek,69.7,170.31,RU,6.91,33.26,98,100,1601110299
154,kangaba,11.93,-8.42,ML,4.12,78.84,82,92,1601110299
155,pacific grove,36.62,-121.92,US,3.65,59.0,93,0,1601110300
156,sitka,57.05,-135.33,US,3.62,51.8,87,90,1601110300
157,brigantine,39.41,-74.36,US,4.7,68.0,93,90,1601110300
158,walvis bay,-22.96,14.51,NA,1.12,59.0,67,0,1601110300
159,severo-kurilsk,50.68,156.12,RU,15.01,46.87,67,1,1601110301
160,barra,-11.09,-43.14,BR,9.6,71.13,71,0,1601110301
161,mandalgovi,45.76,106.27,MN,10.65,58.06,33,66,1601110301
162,nikolskoye,59.7,30.79,RU,8.95,66.2,63,0,1601110302
163,elliot,-31.33,27.85,ZA,20.71,60.03,28,5,1601110302
164,broken hill,-31.95,141.43,AU,11.41,57.2,41,90,1601110302
165,faanui,-16.48,-151.75,PF,14.67,78.33,80,0,1601110303
166,mufumbwe,-13.68,24.8,ZM,3.74,97.39,11,67,1601110303
167,petropavlovsk-kamchatskiy,53.05,158.65,RU,6.71,46.4,61,0,1601110303
168,longyearbyen,78.22,15.64,SJ,3.36,30.2,80,75,1601110303
169,beyneu,45.32,55.2,KZ,19.89,69.04,26,78,1601110304
170,bichura,50.59,107.6,RU,8.3,50.18,58,98,1601110304
171,voznesenye,61.01,35.48,RU,9.24,62.82,71,100,1601110304
172,kodiak,57.79,-152.41,US,8.05,48.2,76,90,1601110305
173,dunedin,-45.87,170.5,NZ,1.01,53.01,83,10,1601110305
174,carnarvon,-24.87,113.63,AU,14.99,73.4,56,0,1601110306
175,namibe,-15.2,12.15,AO,7.52,62.6,82,90,1601110306
176,mabaruma,8.2,-59.78,GY,1.72,73.62,93,60,1601110306
177,lumut,4.23,100.63,MY,8.95,78.8,88,40,1601110306
178,adelaide,-34.93,138.6,AU,10.29,55.0,50,40,1601110271
179,amantea,39.13,16.07,IT,28.86,73.4,46,91,1601110307
180,ishigaki,24.34,124.16,JP,11.41,82.4,74,75,1601110015
181,butaritari,3.07,172.79,KI,15.12,82.2,73,38,1601110307
182,guerrero negro,27.98,-114.06,MX,8.81,67.95,92,0,1601110307
183,pakxe,15.12,105.78,LA,6.93,80.6,88,40,1601110308
184,hambantota,6.12,81.12,LK,13.87,89.6,70,20,1601110308
185,koshurnikovo,54.17,93.3,RU,3.47,43.27,84,100,1601110308
186,tagusao,9.19,117.81,PH,10.69,84.02,78,91,1601110309
187,arlit,18.74,7.39,NE,6.44,95.56,10,0,1601110309
188,kholm,59.27,32.85,RU,10.51,67.55,53,92,1601110309
189,mackenzie,55.3,-123.17,CA,8.05,46.4,70,90,1601110309
190,gannan,47.91,123.5,CN,8.59,63.66,80,100,1601110310
191,khatanga,71.97,102.5,RU,11.39,42.48,64,89,1601110310
192,surab,28.49,66.26,PK,12.46,78.84,12,0,1601110310
193,atuona,-9.8,-139.03,PF,18.77,77.68,72,0,1601110310
194,marsh harbour,26.54,-77.06,BS,11.86,82.2,79,100,1601110085
195,arraial do cabo,-22.97,-42.03,BR,14.0,70.88,91,26,1601110311
196,yar-sale,66.83,70.83,RU,18.97,52.97,66,28,1601110311
197,humaita,-7.51,-63.02,BR,1.74,72.84,90,100,1601110311
198,bengkulu,-3.8,102.27,ID,4.54,81.59,79,92,1601110312
199,gaffney,35.07,-81.65,US,4.16,62.01,95,10,1601110312
200,port macquarie,-31.43,152.92,AU,11.07,60.01,30,0,1601110312
201,keti bandar,24.14,67.45,PK,21.32,87.12,67,2,1601110312
202,perigueux,45.18,0.72,FR,3.0,55.99,91,70,1601110313
203,sao filipe,14.9,-24.5,CV,4.21,80.4,78,85,1601110313
204,provideniya,64.38,-173.3,RU,8.19,32.99,89,0,1601110313
205,barrow,71.29,-156.79,US,10.29,32.0,99,90,1601110313
206,constitucion,-35.33,-72.42,CL,2.98,47.77,73,72,1601110314
207,bodden town,19.28,-81.25,KY,3.0,82.0,87,98,1601110314
208,geraldton,-28.77,114.6,AU,17.22,71.6,53,75,1601110314
209,mandan,46.83,-100.89,US,10.29,62.6,45,100,1601110107
210,cockburn town,21.46,-71.14,TC,11.41,82.54,71,23,1601110314
211,beira,-19.84,34.84,MZ,11.41,87.8,52,0,1601110037
212,lompoc,34.64,-120.46,US,5.82,55.4,93,1,1601110204
213,bealanana,-14.55,48.73,MG,4.34,84.81,25,0,1601110315
214,port said,31.26,32.28,EG,6.35,79.36,66,0,1601110315
215,natchitoches,31.77,-93.13,US,3.04,62.6,100,90,1601110316
216,heinola,61.21,26.04,FI,10.29,61.0,77,50,1601110316
217,amarante,-6.24,-42.85,BR,1.03,68.43,47,30,1601110316
218,portland,45.52,-122.68,US,5.82,57.0,93,75,1601110131
219,puerto leguizamo,-0.19,-74.78,CO,1.57,70.57,83,100,1601110317
220,mehamn,71.04,27.85,NO,21.9,45.23,65,100,1601110317
221,port-gentil,-0.72,8.78,GA,11.41,80.6,78,75,1601110317
222,clyde river,70.47,-68.59,CA,11.41,30.2,86,90,1601110317
223,ketchikan,55.34,-131.65,US,6.93,51.8,100,90,1601110318
224,visby,57.64,18.3,SE,9.17,66.99,88,75,1601110318
225,strezhevoy,60.73,77.59,RU,6.71,53.6,62,56,1601110318
226,porto torres,40.84,8.4,IT,19.46,66.2,48,40,1601110319
227,natal,-5.79,-35.21,BR,8.05,77.0,78,40,1601110299
228,pedernales,18.04,-71.74,DO,3.58,81.54,62,4,1601110319
229,kirakira,-10.45,161.92,SB,10.04,79.84,83,100,1601110320
230,aracuai,-16.85,-42.07,BR,1.97,66.42,83,0,1601110320
231,poya,-21.35,165.15,NC,1.12,75.88,79,91,1601110087
232,san martin,-33.08,-68.47,AR,5.82,59.0,82,46,1601110320
233,naron,43.52,-8.15,ES,8.05,60.8,82,90,1601110321
234,chabahar,25.29,60.64,IR,9.17,96.8,39,0,1601110321
235,saint-augustin,51.23,-58.65,CA,11.59,37.38,77,7,1601110321
236,mandal,25.45,74.57,IN,7.92,85.21,53,83,1601110321
237,teya,60.38,92.63,RU,6.38,47.28,82,100,1601110322
238,dwarka,22.24,68.97,IN,16.24,84.94,67,49,1601110322
239,gat,31.61,34.76,IL,6.8,82.99,67,31,1601110322
240,naryan-mar,67.67,53.09,RU,14.38,55.49,82,100,1601110322
241,salalah,17.02,54.09,OM,13.87,84.2,62,75,1601110323
242,zhelyabovka,45.4,34.76,UA,9.06,78.91,47,55,1601110323
243,caibarien,22.52,-79.47,CU,3.36,73.4,94,5,1601110323
244,okhotsk,59.38,143.3,RU,11.25,48.2,79,79,1601110323
245,woodward,36.43,-99.39,US,19.46,71.6,56,1,1601110324
246,krasnyy chikoy,50.36,108.75,RU,8.41,51.67,56,84,1601110324
247,jishui,33.73,115.4,CN,11.41,75.97,60,77,1601110324
248,muros,42.78,-9.06,ES,3.0,55.99,93,100,1601110324
249,northam,51.03,-4.22,GB,10.0,57.0,72,1,1601110325
250,roros,62.57,11.38,NO,4.7,33.8,100,90,1601110325
251,manati,18.43,-66.49,PR,1.01,78.01,93,54,1601110325
252,vanimo,-2.67,141.3,PG,5.08,80.1,79,8,1601110325
253,matagami,49.75,-77.63,CA,9.17,57.2,93,90,1601110326
254,zandak,43.06,46.46,RU,8.66,75.16,35,74,1601110326
255,fairbanks,64.84,-147.72,US,0.22,42.8,93,90,1601110299
256,faya,18.39,42.45,SA,14.99,80.6,12,0,1601110326
257,broome,42.25,-75.83,US,4.7,57.0,93,1,1601110327
258,buchanan,5.88,-10.05,LR,9.31,77.0,94,75,1601110327
259,kavieng,-2.57,150.8,PG,13.76,83.68,77,25,1601110327
260,mount gambier,-37.83,140.77,AU,11.41,48.2,93,90,1601110327
261,turkistan,43.0,68.0,KZ,32.1,67.95,23,57,1601110328
262,nanortalik,60.14,-45.24,GL,11.07,37.98,89,100,1601110328
263,tura,25.52,90.22,IN,6.58,81.25,90,22,1601110328
264,weligama,5.97,80.42,LK,11.1,84.67,70,67,1601110328
265,husum,54.49,9.05,DE,1.12,52.0,87,100,1601110329
266,otaki,-40.76,175.15,NZ,8.01,55.99,89,100,1601110329
267,kupang,-10.17,123.58,ID,11.41,84.2,74,20,1601110328
268,hualmay,-11.1,-77.61,PE,5.32,58.73,86,31,1601110329
269,marsabit,2.33,37.99,KE,16.24,76.69,46,9,1601110330
270,matay,28.42,30.78,EG,8.05,90.79,31,0,1601110330
271,ust-maya,60.42,134.53,RU,8.68,52.18,59,0,1601110330
272,sao joao da barra,-21.64,-41.05,BR,11.12,70.99,87,0,1601110330
273,safford,32.83,-109.71,US,9.17,73.4,27,1,1601110331
274,linqiong,30.42,103.46,CN,6.71,69.8,83,40,1601110331
275,taoudenni,22.68,-3.98,ML,6.73,100.47,9,0,1601110331
276,codrington,-38.27,141.97,AU,14.34,49.19,76,97,1601110331
277,mantua,45.17,10.78,IT,5.99,63.0,60,96,1601110331
278,santa maria,-29.68,-53.81,BR,6.96,62.67,81,51,1601110332
279,abu dhabi,24.47,54.37,AE,3.36,104.0,22,0,1601110297
280,tapes,-30.67,-51.4,BR,8.41,62.83,89,100,1601110332
281,jacksonville beach,30.29,-81.39,US,4.7,75.99,100,1,1601110153
282,sola,-13.88,167.55,VU,18.54,80.85,82,14,1601110333
283,tukrah,32.53,20.58,LY,24.25,95.67,23,0,1601110333
284,saint andrews,34.05,-81.13,US,5.82,69.8,94,90,1601110333
285,togur,58.36,82.83,RU,9.55,48.88,61,61,1601110333
286,lukovetskiy,64.3,41.92,RU,6.71,62.6,59,11,1601110334
287,matara,5.95,80.54,LK,11.99,85.21,69,64,1601110334
288,ostrovnoy,68.05,39.51,RU,5.37,50.22,73,43,1601110334
289,bozhou,33.88,115.77,CN,9.44,76.3,59,67,1601110292
290,banda aceh,5.56,95.32,ID,10.71,84.54,66,71,1601110334
291,omealca,18.75,-96.77,MX,3.24,69.89,90,70,1601110335
292,maluso,6.54,121.88,PH,2.24,77.0,94,90,1601110335
293,champerico,14.3,-91.92,GT,6.35,66.0,89,100,1601110335
294,aranos,-24.13,19.12,NA,9.66,61.68,32,0,1601110335
295,impfondo,1.64,18.07,CG,3.22,78.85,88,100,1601110336
296,boda,4.32,17.47,CF,4.63,81.1,71,48,1601110336
297,hailey,43.52,-114.32,US,9.17,57.2,58,90,1601110336
298,alugan,12.22,125.48,PH,9.66,83.73,79,92,1601110337
299,peniche,39.36,-9.38,PT,15.99,64.99,70,0,1601110337
300,abengourou,6.73,-3.5,CI,3.33,73.62,96,100,1601110337
301,castro marim,37.22,-7.44,PT,2.24,64.4,55,0,1601110337
302,teacapan,22.55,-105.75,MX,1.45,80.11,84,11,1601110337
303,mongu,-15.25,23.13,ZM,7.65,96.35,10,6,1601110338
304,katsuura,35.13,140.3,JP,1.99,66.99,93,94,1601110338
305,silikatnyy,53.99,48.33,RU,8.95,64.4,42,100,1601110338
306,batticaloa,7.71,81.69,LK,10.92,86.07,68,24,1601110338
307,itarema,-2.92,-39.92,BR,16.4,77.9,79,78,1601110339
308,suda,59.15,37.56,RU,6.71,62.6,63,36,1601110311
309,kiruna,67.86,20.23,SE,4.7,37.4,86,96,1601110339
310,aksarka,66.56,67.8,RU,16.75,54.09,72,44,1601110339
311,barbate,36.19,-5.92,ES,9.17,71.6,40,0,1601110221
312,srednekolymsk,67.45,153.68,RU,6.49,42.75,64,26,1601110340
313,concepcion,-36.83,-73.05,CL,5.82,48.2,87,81,1601110046
314,cuauhtemoc,28.42,-106.87,MX,6.02,57.27,67,0,1601110340
315,atambua,-9.11,124.89,ID,1.01,80.53,64,100,1601110340
316,dingle,11.0,122.67,PH,6.22,82.89,84,98,1601110341
317,san martino di lupari,45.65,11.86,IT,6.93,59.0,77,75,1601110341
318,bambous virieux,-20.34,57.76,MU,12.75,75.99,64,75,1601110341
319,anloga,5.79,0.9,GH,9.17,80.6,78,40,1601110341
320,nizhniy odes,63.64,54.86,RU,7.54,54.64,94,100,1601110342
321,maun,-19.98,23.42,BW,8.05,89.6,18,0,1601110342
322,coihaique,-45.58,-72.07,CL,6.93,42.8,75,91,1601110342
323,bambanglipuro,-7.95,110.28,ID,14.05,86.0,46,97,1601110342
324,bandarbeyla,9.49,50.81,SO,24.94,86.23,52,0,1601110342
325,ekhabi,53.51,142.97,RU,9.17,46.92,81,33,1601110343
326,muisne,0.6,-80.03,EC,6.4,73.27,82,100,1601110343
327,cabo rojo,18.09,-67.15,PR,1.01,80.01,98,2,1601110343
328,campo maior,-4.83,-42.17,BR,3.74,70.09,88,22,1601110344
329,laval,45.57,-73.69,CA,3.36,51.01,81,5,1601110298
330,thabazimbi,-24.59,27.41,ZA,3.0,90.0,21,4,1601110344
331,cidreira,-30.18,-50.21,BR,17.22,63.81,87,100,1601110221
332,coquimbo,-29.95,-71.34,CL,3.36,53.6,81,7,1601110329
333,isangel,-19.55,169.27,VU,10.38,74.52,87,6,1601110344
334,atar,20.52,-13.05,MR,19.39,93.83,23,11,1601110345
335,san cristobal,7.77,-72.22,VE,1.92,64.78,76,72,1601110120
336,egvekinot,66.32,-179.17,RU,7.7,28.71,90,88,1601110345
337,la grande,45.32,-118.09,US,7.56,53.6,81,20,1601110345
338,sawtell,-30.38,153.1,AU,8.05,61.0,29,0,1601110346
339,les cayes,18.2,-73.75,HT,3.56,78.53,76,56,1601110346
340,lively,46.43,-81.15,CA,11.41,59.0,87,75,1601110346
341,marion,39.77,-86.16,US,5.82,61.0,93,1,1601110347
342,vallenar,-28.57,-70.76,CL,1.1,47.89,81,0,1601110347
343,yumen,40.28,97.2,CN,22.97,68.86,23,35,1601110347
344,leningradskiy,69.38,178.42,RU,6.22,24.89,90,54,1601110347
345,talnakh,69.49,88.4,RU,17.9,42.8,75,40,1601110347
346,aklavik,68.22,-135.01,CA,10.29,33.8,100,90,1601110348
347,shache,38.42,77.24,CN,8.19,85.62,12,0,1601110348
348,terrak,65.09,12.37,NO,5.82,48.2,61,20,1601110348
349,diamantina,-18.25,-43.6,BR,4.76,55.08,98,0,1601110185
350,jinchang,38.5,102.17,CN,13.56,74.61,20,1,1601110349
351,otane,-39.88,176.63,NZ,5.35,52.92,69,69,1601110349
352,williamsport,41.24,-77.0,US,4.7,57.2,87,90,1601110154
353,padang,-0.95,100.35,ID,4.41,75.9,86,100,1601110349
354,luanda,-8.84,13.23,AO,5.82,78.8,65,75,1601110332
355,akyab,20.15,92.9,MM,9.82,85.1,75,61,1601110350
356,trn,44.86,17.24,BA,11.41,59.0,82,40,1601110263
357,arys,42.43,68.8,KZ,13.42,73.4,20,100,1601110350
358,mingshui,36.72,117.5,CN,8.39,86.0,37,0,1601110350
359,shingu,33.73,135.98,JP,10.29,75.2,73,75,1601110351
360,chekhov,55.14,37.47,RU,11.18,62.6,51,35,1601110351
361,kampot,10.62,104.18,KH,13.87,86.0,79,40,1601110351
362,yulara,-25.24,130.99,AU,8.05,82.4,12,0,1601110351
363,borogontsy,62.67,131.17,RU,7.09,52.75,54,23,1601110351
364,san juan,-31.54,-68.54,AR,15.99,60.64,78,34,1601110239
365,warri,5.52,5.75,NG,7.09,80.28,82,98,1601110352
366,sioux lookout,50.1,-91.92,CA,9.17,55.4,100,90,1601110352
367,avera,33.19,-82.53,US,3.36,68.0,98,90,1601110353
368,vila velha,-20.33,-40.29,BR,8.05,71.6,88,40,1601110353
369,eslov,55.84,13.3,SE,3.51,60.01,89,100,1601110353
370,korem,12.51,39.52,ET,7.92,69.96,40,4,1601110353
371,husavik,66.04,-17.34,IS,27.51,48.2,61,75,1601110354
372,banjar,-8.19,114.97,ID,12.75,84.2,79,40,1601110354
373,belyy yar,53.6,91.39,RU,6.71,55.4,43,41,1601110354
374,oxford,51.75,-1.26,GB,13.87,48.0,65,0,1601110249
375,tornio,65.85,24.15,FI,5.82,42.8,100,20,1601110354
376,mahebourg,-20.41,57.7,MU,12.75,75.2,64,75,1601110355
377,luderitz,-26.65,15.16,NA,22.44,64.72,46,3,1601110355
378,hobyo,5.35,48.53,SO,22.21,83.35,64,40,1601110355
379,gamarra,8.32,-73.74,CO,8.12,74.66,91,50,1601110355
380,maniitsoq,65.42,-52.9,GL,5.26,38.73,80,100,1601110356
381,gizo,-8.1,156.84,SB,5.26,82.92,76,100,1601110356
382,myaundzha,63.05,147.19,RU,4.14,34.34,82,0,1601110356
383,tabat,-2.63,115.23,ID,2.98,87.12,60,97,1601110356
384,inhambane,-23.86,35.38,MZ,13.87,78.8,74,20,1601110356
385,pangnirtung,66.15,-65.71,CA,4.56,31.71,91,80,1601110357
386,billings,45.78,-108.5,US,19.46,64.0,36,90,1601110296
387,flin flon,54.77,-101.86,CA,3.87,45.9,79,0,1601110357
388,westport,41.14,-73.36,US,2.42,66.2,93,90,1601110357
389,zabol,32.25,67.25,AF,17.98,76.42,13,0,1601110358
390,pisco,-13.7,-76.22,PE,3.36,59.0,87,0,1601110358
391,straumen,63.87,11.3,NO,8.05,46.99,75,40,1601110358
392,pangai,-19.8,-174.35,TO,22.68,75.13,79,100,1601110358
393,gobabis,-22.45,18.97,NA,12.84,72.0,20,0,1601110358
394,chara,56.91,118.26,RU,0.94,45.32,85,100,1601110359
395,bulaevo,54.91,70.44,KZ,6.42,52.84,51,0,1601110359
396,taltal,-25.4,-70.48,CL,0.96,51.69,79,33,1601110359
397,graham,47.05,-122.29,US,5.99,52.0,100,1,1601110359
398,kudahuvadhoo,2.67,72.89,MV,7.65,83.28,68,100,1601110360
399,davila,18.47,120.58,PH,4.7,86.0,79,75,1601110360
400,melilla,35.29,-2.94,ES,13.87,75.2,57,40,1601110360
401,irtyshskiy,58.33,68.13,RU,6.06,53.83,63,52,1601110360
402,port hedland,-20.32,118.57,AU,17.22,86.0,40,79,1601110361
403,mackay,-21.15,149.2,AU,6.93,75.2,57,0,1601110361
404,oromocto,45.84,-66.48,CA,2.24,51.8,87,90,1601110361
405,alofi,-19.06,-169.92,NU,17.22,73.4,83,43,1601110118
406,jensen beach,27.25,-80.23,US,8.43,77.0,88,1,1601110361
407,anton lizardo,19.05,-95.98,MX,1.99,78.01,75,94,1601110362
408,ulaanbaatar,47.91,106.88,MN,15.66,53.6,16,0,1601110323
409,puerto baquerizo moreno,-0.9,-89.6,EC,8.99,65.46,85,84,1601110354
410,bilma,18.69,12.92,NE,7.23,97.32,9,3,1601110362
411,ambon,-3.7,128.18,ID,5.82,82.4,78,40,1601110328
412,valdivia,-39.81,-73.25,CL,0.36,50.0,100,90,1601110363
413,mecca,21.43,39.83,SA,11.68,105.51,16,0,1601110176
414,herat,34.5,62.0,AF,4.7,78.8,11,0,1601110363
415,severnyy,50.68,36.55,RU,13.42,73.4,33,4,1601110363
416,paungde,18.48,95.5,MM,10.22,85.35,80,87,1601110364
417,asosa,10.07,34.53,ET,5.01,74.41,75,1,1601110364
418,grand gaube,-20.01,57.66,MU,13.0,75.99,58,57,1601110364
419,lovozero,68.0,35.01,RU,3.27,47.32,71,66,1601110364
420,cabo san lucas,22.89,-109.91,MX,1.99,81.0,93,0,1601110118
421,jackson,42.42,-122.83,US,1.16,57.2,87,90,1601110102
422,tazovskiy,67.47,78.7,RU,15.9,48.16,68,99,1601110365
423,kibondo,-3.59,30.72,TZ,4.81,87.87,29,8,1601110365
424,rosetown,51.55,-108.0,CA,1.99,53.01,63,100,1601110365
425,saint-joseph,-21.37,55.62,RE,6.93,77.0,53,75,1601110366
426,kindu,-2.95,25.95,CD,3.49,87.44,52,22,1601110366
427,andenes,69.31,16.12,NO,9.17,42.8,81,75,1601110366
428,nome,64.5,-165.41,US,3.36,28.4,79,1,1601110366
429,jalu,29.03,21.55,LY,12.06,98.89,14,0,1601110366
430,amalapuram,16.58,82.02,IN,13.87,80.6,78,90,1601110367
431,borba,-4.39,-59.59,BR,3.38,72.77,97,100,1601110367
432,bafq,31.61,55.41,IR,2.86,93.72,10,0,1601110367
433,sciacca,37.51,13.09,IT,11.01,64.99,64,17,1601110367
434,galesong,-5.32,119.37,ID,6.93,91.4,49,20,1601110368
435,nouadhibou,20.93,-17.03,MR,14.99,78.8,61,20,1601110368
436,kulhudhuffushi,6.62,73.07,MV,12.1,82.62,75,100,1601110368
437,tual,-5.67,132.75,ID,14.34,80.1,85,23,1601110368
438,aksu,41.12,80.26,CN,13.49,75.87,19,0,1601110369
439,magadan,59.57,150.8,RU,8.25,46.33,63,0,1601110369
440,tiznit,29.58,-9.5,MA,4.83,80.2,37,0,1601110369
441,waingapu,-9.66,120.26,ID,14.65,87.39,51,100,1601110369
442,honiara,-9.43,159.95,SB,3.36,80.6,83,40,1601110370
443,yarada,17.65,83.27,IN,4.7,86.0,84,90,1601110370
444,abu zabad,12.35,29.25,SD,11.21,87.19,54,10,1601110370
445,samarai,-10.62,150.67,PG,11.36,78.42,84,95,1601110370
446,malanje,-9.54,16.34,AO,9.17,64.4,93,90,1601110371
447,ilhabela,-23.78,-45.36,BR,1.28,69.04,86,32,1601110371
448,flinders,-34.58,150.86,AU,7.0,57.0,52,0,1601110371
449,salisbury,51.07,-1.8,GB,12.75,50.0,81,0,1601110371
450,mayumba,-3.43,10.66,GA,9.57,76.51,83,98,1601110372
451,dudinka,69.41,86.18,RU,17.9,42.8,75,40,1601110372
452,galdar,28.15,-15.65,ES,24.16,78.01,78,75,1601110372
453,hay river,60.82,-115.8,CA,4.21,46.04,91,49,1601110372
454,assiniboia,49.63,-105.98,CA,15.99,54.55,50,66,1601110372
455,lasa,46.62,10.7,IT,5.82,48.0,80,75,1601110373
456,udachnyy,66.42,112.4,RU,5.35,39.2,69,40,1601110373
457,adolfo lopez mateos,28.47,-107.3,MX,4.05,53.17,81,0,1601110373
458,te anau,-45.42,167.72,NZ,6.76,45.39,90,81,1601110373
459,berlevag,70.86,29.09,NO,19.62,45.73,63,100,1601110374
460,canberra,-35.28,149.13,AU,14.99,46.4,61,75,1601110354
461,alyangula,-13.85,136.42,AU,5.82,86.0,66,2,1601110374
462,pahrump,36.21,-115.98,US,4.34,66.0,24,0,1601110374
463,mezen,65.85,44.24,RU,6.02,59.34,73,57,1601110374
464,ayan,56.45,138.17,RU,7.38,50.47,77,93,1601110375
465,haines junction,60.75,-137.51,CA,0.38,39.13,83,85,1601110375
466,zheleznogorsk,52.33,35.37,RU,16.96,70.43,40,11,1601110375
467,tartus,34.89,35.89,SY,6.93,84.2,62,40,1601110375
468,luwuk,-0.95,122.79,ID,1.77,81.52,76,79,1601110375
469,brae,60.4,-1.35,GB,27.51,50.0,61,40,1601110376
470,chegdomyn,51.12,133.02,RU,1.16,53.83,73,6,1601110376
471,bontang,0.13,117.5,ID,8.75,84.22,74,49,1601110376
472,vaasa,63.1,21.62,FI,6.93,51.8,100,90,1601110376
473,bowen,-20.02,148.23,AU,6.93,78.8,41,0,1601110377
474,amga,60.9,131.96,RU,5.88,53.73,57,79,1601110377
475,bayangol,50.7,103.47,RU,7.29,48.87,47,79,1601110377
476,moindou,-21.69,165.68,NC,6.93,80.6,61,90,1601110377
477,vernon,50.26,-119.27,CA,8.05,53.6,62,75,1601110378
478,narsaq,60.92,-46.05,GL,6.91,35.6,93,100,1601110378
479,yarkovo,57.4,67.08,RU,4.92,51.48,68,63,1601110378
480,ternate,0.8,127.4,ID,3.76,82.99,73,94,1601110378
481,el tigre,8.89,-64.25,VE,7.49,73.15,95,100,1601110379
482,ovsyanka,55.96,92.55,RU,11.18,48.2,76,40,1601110379
483,derzhavinsk,51.1,66.32,KZ,7.47,53.42,43,0,1601110379
484,fortuna,40.6,-124.16,US,6.93,63.0,93,90,1601110379
485,arona,28.1,-16.68,ES,29.97,77.0,78,20,1601110379
486,rockhampton,-23.38,150.5,AU,5.82,78.8,19,0,1601110380
487,ixtapa,20.7,-105.2,MX,1.77,79.0,89,94,1601110380
488,tarkwa,5.31,-1.98,GH,4.23,76.91,87,100,1601110380
489,puerto penasco,31.32,-113.53,MX,4.0,75.99,63,0,1601110380
490,dawei,14.08,98.2,MM,6.53,85.51,67,14,1601110381
491,komarichi,52.42,34.79,RU,16.42,69.42,43,33,1601110381
492,rio gallegos,-51.62,-69.22,AR,3.36,41.0,69,92,1601110381
493,mount isa,-20.73,139.5,AU,9.17,80.6,22,0,1601110381
494,alta floresta,-9.88,-56.09,BR,3.09,70.48,94,100,1601110267
495,wanning,18.8,110.4,CN,6.89,84.09,80,99,1601110382
496,seminole,28.71,-81.21,US,3.36,78.8,83,1,1601110382
497,raudeberg,61.99,5.14,NO,34.16,50.0,69,67,1601110382
498,baykit,61.67,96.37,RU,6.26,53.91,51,0,1601110382
499,moron,-34.65,-58.62,AR,5.01,60.01,99,100,1601110383
500,bonavista,48.65,-53.11,CA,21.72,47.53,63,0,1601110383
501,baruun-urt,46.68,113.28,MN,11.56,66.85,33,90,1601110383
502,soure,-0.72,-48.52,BR,9.06,77.86,85,0,1601110383
503,brokopondo,4.75,-55.17,SR,4.07,75.65,90,63,1601110384
504,bathsheba,13.22,-59.52,BB,5.82,80.6,83,20,1601110384
505,kiama,-34.68,150.87,AU,13.0,57.0,55,0,1601110384
506,saint-paul,-21.01,55.27,RE,21.92,77.0,61,33,1601110384
507,kattivakkam,13.22,80.32,IN,10.29,87.8,62,75,1601110385
508,beringovskiy,63.05,179.32,RU,16.06,37.4,78,94,1601110385
509,kinshasa,-4.32,15.32,CD,10.29,78.8,65,75,1601110328
510,tsevie,6.43,1.21,TG,9.17,80.6,78,40,1601110385
511,taboga,46.27,13.11,IT,5.99,57.0,65,100,1601110385
512,vardo,70.37,31.11,NO,13.31,46.26,64,100,1601110386
513,aloleng,16.13,119.78,PH,10.56,82.58,81,100,1601110386
514,almaznyy,48.04,40.05,RU,22.37,78.8,22,36,1601110386
515,caiaponia,-16.96,-51.81,BR,3.31,71.4,38,0,1601110386
516,sandakan,5.84,118.12,MY,8.05,87.8,74,40,1601110387
517,huittinen,61.18,22.7,FI,8.05,63.0,72,100,1601110387
518,tanout,14.97,8.89,NE,2.57,93.63,26,62,1601110387
519,zheleznodorozhnyy,55.75,38.0,RU,8.95,62.6,55,39,1601110387
520,vilhena,-12.74,-60.15,BR,6.38,72.52,70,2,1601110388
521,san vicente,-26.62,-54.13,AR,3.51,67.93,65,15,1601110388
522,rocha,-34.48,-54.33,UY,8.03,57.81,91,100,1601110388
523,murakeresztur,46.36,16.88,HU,1.03,54.0,87,75,1601110389
524,north bend,43.41,-124.22,US,8.05,61.0,100,75,1601110382
525,port-cartier,50.03,-66.87,CA,2.24,28.4,92,40,1601110389
526,ilebo,-4.32,20.58,CD,2.21,81.1,67,96,1601110389
527,cascais,38.7,-9.42,PT,25.28,64.0,63,0,1601110168
528,rawson,-43.3,-65.1,AR,8.63,53.04,45,0,1601110248
529,bokovskaya,49.23,41.83,RU,17.36,72.73,28,99,1601110390
530,itoman,26.12,127.67,JP,14.99,80.6,69,75,1601110390
531,san quintin,30.48,-115.95,MX,4.52,66.29,90,7,1601110390
532,moranbah,-22.0,148.05,AU,10.4,77.77,23,0,1601110391
533,sumenep,-7.02,113.87,ID,12.75,87.64,54,97,1601110391
534,passos,-20.72,-46.61,BR,3.47,64.15,56,6,1601110391
535,tokonou,9.65,-9.78,GN,3.89,73.04,91,84,1601110391
536,ambilobe,-13.2,49.05,MG,4.21,95.29,25,1,1601110392
537,itupiranga,-5.13,-49.33,BR,2.3,72.68,90,27,1601110392
538,shannon,52.7,-8.86,IE,5.82,46.0,87,0,1601110392
539,nantucket,41.28,-70.1,US,5.82,60.8,100,90,1601110392
540,tamandare,-8.76,-35.1,BR,9.1,74.5,83,15,1601110392
541,manjeshwar,12.72,74.89,IN,3.36,78.8,94,75,1601110393
542,krasnyy yar,46.53,48.35,RU,26.84,71.6,30,24,1601110393
543,fort smith,35.39,-94.4,US,4.7,63.0,100,90,1601110110
544,sandusky,41.35,-83.13,US,1.01,63.0,87,0,1601110393
545,bourges,47.25,2.42,FR,14.99,51.01,76,90,1601110394
546,dandong,40.13,124.39,CN,4.47,67.1,72,0,1601110394
547,lata,40.16,-8.33,PT,5.86,63.0,74,13,1601110394
548,kavaratti,10.57,72.64,IN,5.82,86.0,74,75,1601110394
549,baie-comeau,49.22,-68.15,CA,3.36,32.0,72,1,1601110395
