,City,Cloudiness,Country,Date,Humidity,Temp,Lat,Lng,Wind Speed
0,ipixuna,4,BR,1601033807,83,80.6,-1.76,-48.8,10.29
1,liverpool,40,GB,1601033568,62,57.0,53.41,-2.98,25.28
2,vaini,20,TO,1601033779,88,69.8,-21.2,-175.2,6.93
3,puerto ayora,100,EC,1601033808,89,68.0,-0.74,-90.35,3.0
4,avarua,84,CK,1601033279,88,75.2,-21.21,-159.78,5.82
5,busselton,40,AU,1601033808,63,60.01,-33.65,115.33,5.37
6,rikitea,81,PF,1601033809,85,72.61,-23.12,-134.97,11.34
7,bluff,92,NZ,1601033809,91,42.01,-46.6,168.33,3.0
8,port blair,87,IN,1601033273,81,81.66,11.67,92.75,14.92
9,isla mujeres,75,MX,1601033810,94,77.0,21.23,-86.73,5.73
10,kapaa,20,US,1601033765,74,80.6,22.08,-159.32,14.99
11,velikiy ustyug,2,RU,1601033810,70,66.47,60.76,46.31,7.92
12,ushuaia,40,AR,1601033225,69,39.2,-54.8,-68.3,8.05
13,padang,100,ID,1601033762,77,79.66,-0.95,100.35,1.48
14,gamba,47,GA,1601033811,66,79.74,-2.65,10.0,9.57
15,chokurdakh,1,RU,1601033753,77,38.39,70.63,147.92,5.95
16,barrow,75,US,1601033812,98,32.0,71.29,-156.79,13.87
17,arraial do cabo,40,BR,1601033812,78,75.2,-22.97,-42.03,14.99
18,souillac,40,MU,1601033813,57,77.0,-20.52,57.52,10.29
19,cidreira,92,BR,1601033231,70,65.37,-30.18,-50.21,3.51
20,sao jose de piranhas,0,BR,1601033814,41,82.72,-7.12,-38.5,8.12
21,coahuayana,19,MX,1601033814,86,76.93,18.73,-103.68,2.26
22,punta arenas,77,CL,1601033682,70,42.8,-53.15,-70.92,5.82
23,palmer,1,US,1601033815,100,54.0,42.16,-72.33,1.19
24,dikson,100,RU,1601033330,74,44.4,73.51,80.55,30.22
25,saint george,1,US,1601033815,26,71.01,37.1,-113.58,6.93
26,mataura,75,NZ,1601033770,91,42.01,-46.19,168.86,3.0
27,cherskiy,100,RU,1601033267,95,37.71,68.75,161.3,5.39
28,nioro,95,GM,1601033816,73,83.61,13.35,-15.75,6.91
29,lexington park,75,US,1601033816,87,63.0,38.27,-76.45,4.9
30,hilo,20,US,1601033817,83,71.6,19.73,-155.09,6.93
31,teacapan,46,MX,1601033818,86,79.05,22.55,-105.75,4.83
32,inhambane,0,MZ,1601033818,61,80.01,-23.86,35.38,18.34
33,hualmay,68,PE,1601033819,81,61.23,-11.1,-77.61,6.08
34,codrington,29,AU,1601033819,82,46.65,-38.27,141.97,19.33
35,hermanus,85,ZA,1601033758,89,55.99,-34.42,19.23,4.0
36,airai,81,TL,1601033819,100,62.19,-8.93,125.41,1.05
37,hofn,75,IS,1601033820,51,37.4,64.25,-15.21,9.17
38,kruisfontein,62,ZA,1601033316,60,68.0,-34.0,24.73,11.01
39,jamestown,90,US,1601033821,93,66.0,42.1,-79.24,5.82
40,butaritari,88,KI,1601033258,72,82.42,3.07,172.79,15.59
41,albany,15,US,1601033821,89,57.99,42.6,-73.97,1.14
42,east london,15,ZA,1601033822,64,69.8,-33.02,27.91,21.92
43,atuona,15,PF,1601033823,74,77.45,-9.8,-139.03,15.64
44,provideniya,3,RU,1601033823,88,32.79,64.38,-173.3,7.27
45,kahului,1,US,1601033774,69,78.8,20.89,-156.47,16.11
46,rohnert park,75,US,1601033824,93,55.0,38.34,-122.7,3.36
47,constitucion,40,CL,1601033825,83,51.37,-35.33,-72.42,5.48
48,linqu,70,CN,1601033826,67,72.0,36.52,118.54,1.01
49,gat,40,IL,1601033582,51,87.01,31.61,34.76,11.41
50,apatity,99,RU,1601033826,81,57.29,67.56,33.4,11.63
51,hithadhoo,40,MV,1601033826,65,82.94,-0.6,73.08,4.72
52,lagoa,100,PT,1601033827,74,67.3,39.05,-27.98,12.59
53,consolacion del sur,31,CU,1601033828,91,76.87,22.5,-83.51,1.66
54,evensk,41,RU,1601033828,74,37.6,61.95,159.23,8.12
55,najran,0,SA,1601033829,13,96.8,17.49,44.13,5.82
56,castro,7,BR,1601033493,65,65.7,-24.79,-50.01,5.32
57,ribeira grande,75,PT,1601033829,60,69.8,38.52,-28.7,8.05
58,yining,100,CN,1601033829,90,63.54,29.04,114.56,3.13
59,gorele,40,TR,1601033830,73,77.0,41.03,39.0,6.93
60,launceston,90,AU,1601033830,93,43.0,-41.45,147.17,10.29
61,laguna,1,US,1601033774,72,60.8,38.42,-121.42,6.93
62,nanortalik,100,GL,1601033770,86,40.42,60.14,-45.24,9.46
63,toyooka,75,JP,1601033831,83,73.4,35.53,134.83,19.46
64,gainesville,1,US,1601033832,100,72.0,29.65,-82.32,3.09
65,hobart,20,AU,1601033567,93,44.6,-42.88,147.33,2.24
66,edson,1,CA,1601033832,76,35.6,53.58,-116.44,4.03
67,faanui,0,PF,1601033296,78,78.3,-16.48,-151.75,13.82
68,ponta do sol,1,PT,1601033248,76,75.0,32.67,-17.1,8.99
69,kibondo,24,TZ,1601033833,25,87.26,-3.59,30.72,6.4
70,luganville,85,VU,1601033833,84,78.82,-15.53,167.17,7.74
71,rawson,0,AR,1601033550,41,58.14,-43.3,-65.1,6.44
72,khatanga,91,RU,1601033293,75,45.41,71.97,102.5,6.87
73,pereleshinskiy,47,RU,1601033834,22,77.0,51.71,40.2,11.18
74,zubova polyana,95,RU,1601033834,51,67.42,54.08,42.84,9.28
75,sola,92,VU,1601033392,84,80.87,-13.88,167.55,14.05
76,moramanga,60,MG,1601033835,56,71.1,-18.93,48.2,7.45
77,eureka,95,US,1601033545,95,54.0,40.8,-124.16,1.01
78,cozumel,75,MX,1601033835,94,77.0,20.51,-86.95,6.51
79,san patricio,17,MX,1601033836,86,78.08,19.22,-104.7,5.46
80,avera,90,US,1601033836,98,71.6,33.19,-82.53,5.82
81,victoria,79,HK,1601033837,78,82.0,22.29,114.16,13.0
82,tres arroyos,0,AR,1601033680,63,57.76,-38.37,-60.28,10.71
83,pisco,90,PE,1601033087,87,59.0,-13.7,-76.22,3.36
84,bo rai,74,TH,1601033837,84,77.85,12.57,102.54,2.57
85,georgetown,20,MY,1601033784,88,77.0,5.41,100.34,3.36
86,manzhouli,100,CN,1601033838,58,51.87,49.6,117.43,7.54
87,fortuna,1,US,1601033838,100,54.0,40.6,-124.16,3.36
88,lumeje,56,AO,1601033838,11,94.21,-11.55,20.78,8.25
89,tara,84,RU,1601033839,76,47.98,56.89,74.37,6.67
90,saumur,90,FR,1601033839,87,57.0,47.33,-0.25,8.05
91,myslenice,96,PL,1601033840,68,73.99,49.83,19.94,4.7
92,bethel,1,US,1601033840,93,53.01,41.37,-73.41,2.01
93,darhan,94,MN,1601033841,43,60.84,49.49,105.92,10.04
94,viedma,0,AR,1601033587,82,51.01,-40.81,-63.0,8.5
95,singaparna,73,ID,1601033841,88,72.81,-7.35,108.11,2.68
96,chase,90,CA,1601033842,50,57.2,50.82,-119.69,9.17
97,port alfred,7,ZA,1601033768,65,67.68,-33.59,26.89,23.06
98,honningsvag,75,NO,1601033842,87,46.4,70.98,25.97,10.29
99,coruripe,20,BR,1601033842,66,79.11,-10.13,-36.18,9.75
100,longyearbyen,75,SJ,1601033843,91,32.0,78.22,15.64,13.87
101,lagos,75,NG,1601033843,70,86.0,6.58,3.75,3.36
102,angoche,24,MZ,1601033843,61,79.9,-16.23,39.91,11.63
103,itarema,74,BR,1601033844,58,84.34,-2.92,-39.92,16.04
104,ilulissat,75,GL,1601033844,55,39.2,69.22,-51.1,19.46
105,nikolskoye,94,RU,1601033845,45,69.01,59.7,30.79,8.95
106,beisfjord,75,NO,1601033845,93,44.6,68.38,17.6,12.75
107,excelsior springs,1,US,1601033846,93,62.01,39.34,-94.23,3.36
108,charagua,0,BO,1601033846,64,71.6,-19.8,-63.22,5.82
109,caxito,40,AO,1601033846,58,82.4,-8.58,13.66,8.05
110,tura,99,IN,1601033847,95,75.07,25.52,90.22,5.23
111,nago,40,JP,1601033706,74,80.6,26.59,127.98,8.05
112,cap malheureux,0,MU,1601033847,59,75.99,-19.98,57.61,8.99
113,tuktoyaktuk,100,CA,1601033847,95,34.0,69.45,-133.04,18.52
114,bintulu,40,MY,1601033848,94,78.8,3.17,113.03,5.17
115,maham,0,IN,1601033848,20,96.28,28.98,76.3,6.69
116,uchiza,52,PE,1601033848,76,69.73,-8.46,-76.46,1.01
117,hami,7,CN,1601033849,25,69.6,42.8,93.45,14.23
118,coihaique,79,CL,1601033849,80,39.2,-45.58,-72.07,4.7
119,marabba,36,SD,1601033850,40,93.52,12.35,32.18,5.26
120,gander,20,CA,1601033764,81,50.0,48.97,-54.59,13.87
121,bredasdorp,75,ZA,1601033851,52,66.2,-34.53,20.04,17.22
122,popondetta,100,PG,1601033851,96,73.72,-8.75,148.25,3.2
123,cape town,75,ZA,1601033492,93,64.0,-33.93,18.42,8.05
124,goderich,1,CA,1601033851,81,59.0,43.75,-81.72,5.28
125,upernavik,0,GL,1601033777,83,21.76,72.79,-56.15,14.12
126,narsaq,75,GL,1601033852,36,46.4,60.92,-46.05,20.8
127,neiafu,8,TO,1601033852,79,76.1,-18.65,-173.98,14.85
128,kamaishi,75,JP,1601033853,93,59.0,39.27,141.88,24.16
129,mantua,15,IT,1601033853,49,78.01,45.17,10.78,15.99
130,aklavik,90,CA,1601033645,100,37.4,68.22,-135.01,6.93
131,norman wells,90,CA,1601033853,100,39.2,65.28,-126.83,11.41
132,trelew,0,AR,1601033854,31,61.38,-43.25,-65.31,5.32
133,geraldton,75,AU,1601033854,82,64.4,-28.77,114.6,6.93
134,vieques,40,PR,1601033855,83,80.6,18.43,-65.83,4.9
135,severo-kurilsk,30,RU,1601033856,79,48.72,50.68,156.12,15.97
136,buala,80,SB,1601033857,81,80.96,-8.14,159.59,5.97
137,te anau,69,NZ,1601033857,87,42.44,-45.42,167.72,3.67
138,makakilo city,90,US,1601033858,65,78.8,21.35,-158.09,6.93
139,dingle,100,PH,1601033858,89,77.65,11.0,122.67,5.26
140,touros,40,BR,1601033859,78,78.8,-5.2,-35.46,6.93
141,saint anthony,1,US,1601033859,87,61.0,45.02,-93.22,3.36
142,kavieng,86,PG,1601033859,72,83.21,-2.57,150.8,9.04
143,acarau,68,BR,1601033570,58,83.91,-2.89,-40.12,15.97
144,kralendijk,40,BQ,1601033860,74,86.0,12.15,-68.27,11.41
145,port macquarie,0,AU,1601033860,39,66.2,-31.43,152.92,18.34
146,carnarvon,0,AU,1601033861,73,69.8,-24.87,113.63,12.75
147,lorengau,50,PG,1601033861,71,82.96,-2.02,147.27,7.47
148,dharchula,33,IN,1601033862,71,71.31,29.85,80.53,1.52
149,thompson,40,CA,1601033862,93,46.4,55.74,-97.86,3.36
150,cayenne,84,GF,1601033782,100,77.0,4.93,-52.33,2.24
151,college,90,US,1601033299,86,37.99,64.86,-147.8,3.36
152,gazanjyk,17,TM,1601033863,11,86.45,39.24,55.52,15.7
153,richards bay,21,ZA,1601033863,18,99.99,-28.78,32.04,15.73
154,phalodi,4,IN,1601033863,21,99.19,27.13,72.37,16.06
155,santa luzia,40,BR,1601033864,73,71.6,-19.77,-43.85,9.17
156,kasempa,11,ZM,1601033335,11,92.59,-13.46,25.83,7.96
157,harrisonburg,90,US,1601033864,100,54.0,38.45,-78.87,1.92
158,okhotsk,0,RU,1601033289,64,48.38,59.38,143.3,7.47
159,sao jose da coroa grande,8,BR,1601033865,67,78.55,-8.9,-35.15,9.64
160,smolenka,96,RU,1601033865,76,48.2,52.14,113.5,8.95
161,hun,0,LY,1601033866,11,104.45,29.13,15.95,9.93
162,mahebourg,40,MU,1601033866,57,77.0,-20.41,57.7,10.29
163,san pedro de macoris,20,DO,1601033867,94,78.01,18.46,-69.3,4.7
164,sept-iles,40,CA,1601033729,62,42.01,50.2,-66.38,12.75
165,tasiilaq,75,GL,1601033867,86,33.8,65.61,-37.64,18.34
166,sabha,0,LY,1601033867,15,98.11,27.04,14.43,4.0
167,puerto del rosario,40,ES,1601033868,83,78.8,28.5,-13.86,12.75
168,sitka,20,US,1601033346,93,48.2,57.05,-135.33,5.55
169,namibe,20,AO,1601033783,68,69.8,-15.2,12.15,11.41
170,mar del plata,90,AR,1601033711,100,51.01,-38.0,-57.56,4.7
171,general roca,0,AR,1601033579,25,42.8,-39.03,-67.58,4.7
172,tiksi,93,RU,1601033869,61,44.29,71.69,128.87,11.61
173,myskhako,16,RU,1601033869,57,80.6,44.67,37.74,8.95
174,cabo san lucas,0,MX,1601033220,75,75.99,22.89,-109.91,7.11
175,hambantota,40,LK,1601033870,84,86.0,6.12,81.12,8.05
176,alofi,34,NU,1601033870,88,71.6,-19.06,-169.92,6.93
177,warmbad,0,NA,1601033870,16,79.2,-28.45,18.73,20.83
178,zhangjiakou,0,CN,1601033870,52,62.65,40.81,114.88,5.39
179,gumla,63,IN,1601033871,82,78.35,23.05,84.55,5.68
180,miyako,100,JP,1601033871,89,61.84,39.64,141.95,30.18
181,pindiga,69,NG,1601033872,72,82.51,9.98,10.93,11.34
182,raga,21,SS,1601033872,57,90.61,8.46,25.68,1.14
183,kaitangata,75,NZ,1601033873,85,46.0,-46.28,169.85,1.99
184,isangel,7,VU,1601033873,86,74.55,-19.55,169.27,12.08
185,sao joao da barra,20,BR,1601033874,83,75.2,-21.64,-41.05,11.41
186,coquimbo,75,CL,1601033767,100,51.8,-29.95,-71.34,3.36
187,saskylakh,0,RU,1601033875,58,45.59,71.92,114.08,13.42
188,ruthen,40,DE,1601033875,58,57.99,51.49,8.44,12.75
189,stepnyak,85,KZ,1601033876,69,46.33,52.83,70.78,13.47
190,saint-philippe,40,RE,1601033876,65,77.0,-21.36,55.77,24.16
191,feldkirchen,100,DE,1601033876,94,51.01,48.15,11.74,7.0
192,vardo,75,NO,1601033393,93,50.0,70.37,31.11,9.17
193,ohara,75,JP,1601033877,100,71.01,35.25,140.38,5.82
194,casablanca,88,MA,1601033813,69,84.2,33.59,-7.62,18.34
195,sychevka,81,RU,1601033877,62,66.18,55.83,34.27,10.38
196,manaure,100,CO,1601033878,77,84.04,11.78,-72.44,11.97
197,lavrentiya,21,RU,1601033878,91,32.61,65.58,-171.0,9.55
198,ginda,40,IN,1601033879,70,86.0,30.69,78.49,6.93
199,mahajanga,4,MG,1601033879,23,93.2,-15.72,46.32,11.41
200,ndele,80,CF,1601033880,74,82.08,8.41,20.65,7.45
201,yellowknife,90,CA,1601033838,100,48.0,62.46,-114.35,8.05
202,road town,40,VG,1601033726,88,84.0,18.42,-64.62,6.93
203,chimbote,86,PE,1601033880,87,60.94,-9.09,-78.58,5.41
204,ust-tsilma,93,RU,1601033881,85,57.97,65.44,52.15,6.49
205,sinjar,0,IQ,1601033881,19,93.7,36.32,41.88,12.17
206,flin flon,90,CA,1601033882,93,51.8,54.77,-101.86,12.75
207,new norfolk,96,AU,1601033882,86,44.01,-42.78,147.06,1.61
208,wageningen,75,NL,1601033883,76,57.99,51.97,5.67,16.11
209,gitega,55,BI,1601033884,39,78.03,-3.5,29.95,11.54
210,lata,34,PT,1601033884,52,73.0,40.16,-8.33,5.01
211,moose factory,20,CA,1601033884,93,35.6,51.26,-80.61,5.82
212,rodrigues alves,91,BR,1601033885,81,73.8,-7.74,-72.65,2.75
213,katsuura,75,JP,1601033885,94,71.01,35.13,140.3,10.29
214,praia da vitoria,75,PT,1601033886,77,70.0,38.73,-27.07,11.92
215,katobu,79,ID,1601033886,82,76.23,-4.94,122.53,4.92
216,los llanos de aridane,20,ES,1601033887,74,80.6,28.66,-17.92,12.75
217,mykolayivka,7,UA,1601033887,36,81.88,47.54,30.76,9.62
218,turukhansk,96,RU,1601033887,84,44.31,65.82,87.98,11.79
219,virginia beach,75,US,1601033687,88,64.4,36.85,-75.98,5.77
220,nusaybin,20,TR,1601033888,35,89.6,37.08,41.22,6.93
221,yanji,3,CN,1601033889,86,53.73,42.91,129.51,1.39
222,nouakchott,81,MR,1601033890,59,91.4,18.09,-15.98,6.93
223,salalah,14,OM,1601033891,66,84.2,17.02,54.09,13.87
224,sines,88,PT,1601033892,66,68.0,37.96,-8.87,14.0
225,poya,38,NC,1601033892,86,71.71,-21.35,165.15,5.21
226,collie,57,AU,1601033893,63,60.01,-33.37,116.15,2.06
227,alyangula,4,AU,1601033893,74,80.6,-13.85,136.42,3.36
228,bonavista,0,CA,1601033438,75,54.55,48.65,-53.11,17.45
229,wingham,6,CA,1601033894,92,53.01,43.89,-81.31,4.0
230,kokkola,43,FI,1601033894,62,60.01,63.84,23.13,16.11
231,yangcun,0,CN,1601033894,82,68.0,39.36,117.06,4.47
232,talnakh,53,RU,1601033895,75,42.8,69.49,88.4,11.18
233,lebu,0,CL,1601033310,91,47.97,-37.62,-73.65,3.0
234,paamiut,100,GL,1601033895,88,39.97,61.99,-49.67,37.36
235,bambous virieux,40,MU,1601033757,57,77.0,-20.34,57.76,10.29
236,kanigoro,91,ID,1601033896,85,75.94,-8.13,112.22,7.63
237,dzilam gonzalez,95,MX,1601033896,94,75.6,21.28,-88.93,2.77
238,turayf,0,SA,1601033897,33,91.4,31.67,38.66,6.93
239,milkovo,57,RU,1601033897,87,34.34,54.72,158.62,3.98
240,pueblo,1,US,1601033784,46,62.01,38.25,-104.61,5.82
241,borgarnes,17,IS,1601033898,55,39.2,64.54,-21.92,11.41
242,srednekolymsk,5,RU,1601033898,72,40.71,67.45,153.68,9.73
243,semnan,0,IR,1601033899,12,87.85,35.57,53.4,9.26
244,terney,99,RU,1601033899,80,55.35,45.05,136.61,14.2
245,torbay,75,CA,1601033742,87,59.0,47.67,-52.73,18.34
246,brae,40,GB,1601033900,66,51.8,60.4,-1.35,11.41
247,mangalia,40,RO,1601033900,69,75.2,43.8,28.58,11.41
248,esperance,27,AU,1601033901,71,53.6,-33.87,121.9,14.99
249,beringovskiy,100,RU,1601033901,79,39.36,63.05,179.32,20.2
250,port lincoln,40,AU,1601033902,70,49.26,-34.73,135.87,13.73
251,nakusp,75,CA,1601033902,74,45.52,50.25,-117.8,3.71
252,novaya lyada,90,RU,1601033902,42,69.94,52.71,41.64,9.91
253,asau,22,RO,1601033903,59,75.99,46.43,26.4,9.98
254,petropavlovsk-kamchatskiy,2,RU,1601033903,60,41.0,53.05,158.65,6.71
255,nyaunglebin,65,MM,1601033904,93,77.67,17.95,96.73,5.26
256,altar,0,MX,1601033904,34,77.94,30.7,-111.82,0.58
257,pacasmayo,77,PE,1601033904,85,61.79,-7.4,-79.57,5.35
258,mount gambier,75,AU,1601033905,93,44.6,-37.83,140.77,11.41
259,maridi,73,SS,1601033905,67,80.49,4.92,29.47,4.16
260,san fernando,75,PH,1601033906,79,84.2,15.03,120.69,4.7
261,copiapo,90,CL,1601033906,76,55.4,-27.37,-70.33,3.36
262,iqaluit,90,CA,1601033907,86,33.8,63.75,-68.51,13.87
263,muros,41,ES,1601033907,77,63.0,42.78,-9.06,3.0
264,tessalit,3,ML,1601033907,8,103.55,20.2,1.01,13.76
265,huarmey,36,PE,1601033908,80,62.1,-10.07,-78.15,6.62
266,takoradi,20,GH,1601033908,78,80.62,4.88,-1.76,8.66
267,ruthin,40,GB,1601033806,58,55.4,53.11,-3.32,24.16
268,fort nelson,90,CA,1601033909,100,41.0,58.81,-122.7,5.82
269,jupiter,24,US,1601033909,100,79.0,26.93,-80.09,5.99
270,saldanha,100,ZA,1601033910,93,57.2,-33.01,17.94,13.87
271,victor harbor,28,AU,1601033910,87,46.99,-35.57,138.62,8.01
272,kavaratti,73,IN,1601033911,79,82.33,10.57,72.64,12.84
273,praya,40,CV,1601033911,70,84.2,14.92,-23.51,12.75
274,tselinnoye,100,RU,1601033912,90,41.86,53.08,85.67,10.58
275,butajira,36,ET,1601033912,57,71.15,8.12,38.37,5.88
276,port shepstone,78,ZA,1601033913,69,74.32,-30.74,30.45,23.94
277,phan thiet,100,VN,1601033850,78,81.37,10.93,108.1,5.1
278,san cristobal,40,VE,1601033913,57,78.8,7.77,-72.22,5.82
279,wenatchee,1,US,1601033914,93,54.0,47.42,-120.31,4.7
280,cascas,70,PE,1601033914,50,69.22,-7.48,-78.82,2.19
281,sungai petani,20,MY,1601033914,88,77.0,5.65,100.49,3.36
282,beawar,44,IN,1601033650,38,91.24,26.1,74.32,8.08
283,nairn,40,GB,1601033915,62,53.01,57.58,-3.88,10.29
284,binghamton,1,US,1601033840,93,55.0,42.1,-75.92,3.02
285,les ponts-de-ce,90,FR,1601033915,87,57.0,47.42,-0.52,8.05
286,aquiraz,20,BR,1601033916,65,82.4,-3.9,-38.39,14.99
287,chuy,83,UY,1601033916,71,61.23,-33.7,-53.46,3.44
288,agadez,30,NE,1601033917,10,97.97,19.75,10.25,7.56
289,sorland,75,NO,1601033917,93,44.6,67.67,12.69,11.41
290,balikpapan,72,ID,1601033439,85,79.68,-1.27,116.83,6.42
291,sembakung,79,ID,1601033917,96,74.97,3.82,117.25,2.82
292,ashland,1,US,1601033918,100,54.0,40.82,-82.27,3.36
293,carnduff,100,CA,1601033918,41,54.66,49.17,-101.8,9.46
294,vestmanna,23,FO,1601033918,75,46.4,62.16,-7.17,17.22
295,auki,25,SB,1601033919,85,78.15,-8.77,160.7,4.81
296,quiruvilca,34,PE,1601033919,93,37.71,-7.97,-78.2,5.21
297,atar,7,MR,1601033920,22,99.48,20.52,-13.05,11.1
298,tsabong,62,BW,1601033920,10,92.43,-26.02,22.4,15.17
299,stromness,40,GB,1601033920,66,50.0,58.97,-3.3,20.8
300,abrau-dyurso,22,RU,1601033921,57,80.6,44.69,37.59,8.95
301,vila velha,0,BR,1601033354,78,77.0,-20.33,-40.29,3.36
302,sao filipe,14,CV,1601033436,73,81.03,14.9,-24.5,3.8
303,port elizabeth,20,ZA,1601033921,63,66.2,-33.92,25.57,27.51
304,tigil,0,RU,1601033922,89,34.65,57.8,158.67,3.51
305,dakar,20,SN,1601033922,70,87.8,14.69,-17.44,6.93
306,zaozhuang,69,CN,1601033923,72,68.16,34.86,117.55,4.61
307,seoul,1,KR,1601033757,49,69.8,37.57,126.98,4.7
308,panaba,84,MX,1601033924,93,75.42,21.28,-88.27,4.36
309,cururupu,68,BR,1601033924,68,81.5,-1.83,-44.87,8.34
310,arica,1,CL,1601033924,79,57.0,-18.48,-70.3,1.99
311,derzhavinsk,63,KZ,1601033925,52,50.09,51.1,66.32,12.12
312,hobyo,2,SO,1601033926,67,80.91,5.35,48.53,30.38
313,kudahuvadhoo,77,MV,1601033926,74,83.14,2.67,72.89,8.81
314,janauba,0,BR,1601033927,45,78.84,-15.8,-43.31,11.54
315,huanren,15,CN,1601033927,88,56.03,41.26,125.37,2.66
316,mersing,30,MY,1601033928,83,82.4,2.43,103.84,3.36
317,klaksvik,32,FO,1601033928,75,46.4,62.23,-6.59,17.22
318,kongolo,99,CD,1601033929,54,85.62,-5.38,27.0,5.77
319,siilinjarvi,75,FI,1601033929,93,59.0,63.08,27.67,5.82
320,glasgow,90,GB,1601033930,62,54.0,55.87,-4.26,10.29
321,naron,44,ES,1601033930,60,64.0,43.52,-8.15,8.01
322,xining,9,CN,1601033931,53,56.5,36.62,101.77,7.74
323,matara,100,LK,1601033379,83,80.37,5.95,80.54,7.9
324,saeby,75,DK,1601033931,76,55.99,57.33,10.52,9.17
325,rio gallegos,81,AR,1601033932,75,42.8,-51.62,-69.22,10.29
326,aswan,0,EG,1601033932,12,106.45,24.09,32.91,9.84
327,paragominas,46,BR,1601033932,81,77.68,-2.97,-47.48,5.37
328,vaitape,0,PF,1601033933,77,79.16,-16.52,-151.75,15.35
329,umm kaddadah,37,SD,1601033933,25,96.13,13.6,26.69,4.52
330,fuerte olimpo,0,PY,1601033934,31,88.56,-21.04,-57.87,11.1
331,bozdar,88,PK,1601033934,39,100.4,27.18,68.64,6.93
332,shingu,75,JP,1601033935,94,71.6,33.73,135.98,10.29
333,kalmeshwar,75,IN,1601033935,74,87.8,21.23,78.9,3.36
334,falam,97,MM,1601033936,100,63.59,22.92,93.68,3.49
335,vao,27,NC,1601033936,89,72.05,-22.67,167.48,18.37
336,nipawin,1,CA,1601033937,54,57.2,53.37,-104.0,21.92
337,haines junction,99,CA,1601033937,82,41.41,60.75,-137.51,0.78
338,gorey,6,IE,1601033938,82,51.01,52.67,-6.29,1.01
339,kotaparh,94,IN,1601033938,84,79.25,19.15,82.35,2.8
340,roebourne,0,AU,1601033939,38,80.46,-20.78,117.13,16.15
341,mugla,40,TR,1601033939,40,86.0,37.23,28.36,18.34
342,petropolis,64,RU,1601033939,45,69.01,59.89,30.26,8.95
343,xuddur,26,SO,1601033940,31,91.31,4.12,43.89,18.21
344,atbasar,67,KZ,1601033940,55,48.18,51.8,68.33,11.21
345,lazaro cardenas,21,MX,1601033941,84,77.32,17.96,-102.2,5.35
346,mehamn,75,NO,1601033942,87,46.4,71.04,27.85,3.36
347,giresun,75,TR,1601033942,78,77.0,40.5,38.5,6.93
348,nome,1,US,1601033943,74,28.4,64.5,-165.41,8.05
349,ixtapa,5,MX,1601033944,88,81.0,20.7,-105.2,1.95
350,jiazi,75,CN,1601033944,81,74.82,22.88,116.07,13.4
351,zelenoborskiy,90,RU,1601033944,80,58.66,66.84,32.36,12.26
352,kletskaya,16,RU,1601033945,31,77.0,49.31,43.06,8.99
353,pevek,100,RU,1601033945,99,31.91,69.7,170.31,7.4
354,bay roberts,13,CA,1601033945,1,57.0,47.6,-53.26,13.22
355,puerto quijarro,0,BO,1601033946,25,91.76,-17.78,-57.77,4.05
356,enshi,100,CN,1601033371,85,60.53,30.3,109.48,4.45
357,rorvik,75,NO,1601033946,76,48.2,64.86,11.24,13.87
358,xudat,1,AZ,1601033947,41,75.85,41.63,48.68,15.21
359,bengkulu,43,ID,1601033947,84,79.61,-3.8,102.27,7.4
360,marawi,92,PH,1601033948,91,75.99,8.0,124.29,7.0
361,rafraf,20,TN,1601033948,19,91.4,37.19,10.18,6.93
362,bathsheba,20,BB,1601033949,78,82.4,13.22,-59.52,9.17
363,paraiso,99,CR,1601033949,100,66.2,9.84,-83.87,5.82
364,buchanan,100,LR,1601033150,78,81.12,5.88,-10.05,3.71
365,ahipara,14,NZ,1601033950,95,57.38,-35.17,173.17,4.16
366,ulaanbaatar,40,MN,1601033951,24,66.2,47.91,106.88,8.95
367,boyle,40,US,1601033951,93,57.99,37.63,-84.87,5.1
368,scarborough,100,GB,1601033951,90,50.0,54.28,-0.4,8.99
369,menongue,12,AO,1601033952,9,97.02,-14.66,17.69,9.37
370,belomorsk,91,RU,1601033952,70,63.63,64.52,34.77,12.91
371,taoudenni,0,ML,1601033953,6,112.96,22.68,-3.98,15.79
372,sur,34,OM,1601033953,36,91.06,22.57,59.53,5.82
373,ambilobe,97,MG,1601033953,40,86.4,-13.2,49.05,8.28
374,aloleng,99,PH,1601033954,84,81.72,16.13,119.78,1.57
375,mount isa,0,AU,1601033954,24,71.6,-20.73,139.5,5.82
376,cockburn town,9,TC,1601033955,81,82.83,21.46,-71.14,13.24
377,ufimskiy,1,RU,1601033955,64,56.21,56.71,58.05,3.56
378,shelburne,90,CA,1601033955,100,55.0,44.08,-80.2,2.24
379,ozark,2,US,1601033956,95,55.99,37.02,-93.21,4.99
380,santa isabel,40,BR,1601033956,88,68.0,-23.32,-46.22,8.05
381,non sang,75,TH,1601033957,70,86.0,16.87,102.57,3.36
382,douglas,1,US,1601033957,88,63.0,41.3,-96.17,5.82
383,paso de carrasco,75,UY,1601033957,93,55.4,-34.86,-56.05,5.82
384,chambery,82,FR,1601033958,66,55.4,45.57,5.93,12.75
385,qaanaaq,0,GL,1601033958,79,14.34,77.48,-69.36,5.46
386,narrabri,90,AU,1601033958,46,54.0,-30.32,149.78,11.41
387,saint-louis,83,SN,1601033959,66,89.6,16.33,-15.0,2.62
388,kalaleh,40,IR,1601033960,43,87.8,37.38,55.49,4.7
389,ajdabiya,0,LY,1601033960,22,95.18,30.76,20.23,11.65
390,dhidhdhoo,29,MV,1601033961,79,82.11,6.88,73.1,12.5
391,piriyapatna,40,IN,1601033961,58,84.2,12.34,76.1,16.11
392,san rafael del sur,40,NI,1601033961,94,75.2,11.85,-86.44,2.08
393,rumoi,100,JP,1601033962,69,56.89,43.93,141.64,13.35
394,garowe,11,SO,1601033962,27,96.06,8.41,48.48,16.26
395,pingliang,97,CN,1601033963,87,55.24,35.54,106.69,3.76
396,swan river,0,CA,1601033963,49,56.37,52.11,-101.27,16.11
397,luderitz,83,NA,1601033964,70,61.86,-26.65,15.16,11.01
398,ostrovnoy,100,RU,1601033753,66,60.06,68.05,39.51,24.23
399,mercedes,100,AR,1601033964,32,66.99,-34.65,-59.43,13.0
400,novoagansk,0,RU,1601033965,66,45.19,61.94,76.66,5.86
401,whitehorse,75,CA,1601033965,81,42.8,60.72,-135.05,3.36
402,lompoc,1,US,1601033966,93,59.0,34.64,-120.46,9.91
403,panjab,0,AF,1601033966,16,68.72,34.39,67.02,13.42
404,libourne,100,FR,1601033967,87,55.99,44.92,-0.25,6.93
405,lodja,100,CD,1601033968,73,78.04,-3.48,23.43,4.23
406,katherine,90,AU,1601033968,51,84.2,-14.47,132.27,12.75
407,ayacucho,9,PE,1601033968,58,55.06,-13.16,-74.22,0.67
408,concordia,100,AR,1601033969,77,68.0,-31.39,-58.02,11.41
409,anito,100,PH,1601033969,86,79.72,12.45,125.29,2.75
410,bluefield,90,US,1601033970,100,57.0,37.27,-81.22,3.36
411,harlingen,1,US,1601033970,100,75.99,26.19,-97.7,4.7
412,donskoy,42,RU,1601033971,40,69.96,53.97,38.34,10.83
413,kasongo-lunda,94,CD,1601033971,51,88.63,-6.47,16.82,4.43
414,dunedin,86,NZ,1601033965,85,46.99,-45.87,170.5,5.77
415,la union,84,PE,1601033972,81,63.09,-5.4,-80.75,8.21
416,mackay,6,AU,1601033972,78,73.4,-21.15,149.2,10.29
417,rawlins,1,US,1601033973,42,46.4,41.79,-107.24,9.93
418,japura,36,ID,1601033973,90,77.09,-0.32,102.35,0.38
419,cerrito,75,CO,1601033974,100,66.2,6.84,-72.69,2.24
420,kamina,93,CD,1601033974,56,77.56,-8.74,24.99,9.53
421,gambela,21,ET,1601033974,63,86.61,8.25,34.58,3.22
422,roald,75,NO,1601033975,66,51.8,62.58,6.13,11.41
423,nizwa,0,OM,1601033975,9,101.73,22.93,57.53,8.16
424,moissac,100,FR,1601033976,87,53.6,44.1,1.09,12.75
425,san rafael,3,AR,1601033976,28,65.66,-34.62,-68.33,10.13
426,murgab,0,TM,1601033977,13,82.4,37.5,61.97,13.87
427,progreso,93,MX,1601033977,94,77.0,21.28,-89.67,3.22
428,manoel urbano,93,BR,1601033977,75,77.27,-8.84,-69.26,3.4
429,kapuskasing,75,CA,1601033978,93,37.4,49.42,-82.43,5.82
430,indramayu,92,ID,1601033979,69,84.16,-6.33,108.32,10.51
431,caravelas,20,BR,1601033979,78,76.03,-17.71,-39.25,7.0
432,pringsewu,100,ID,1601033979,89,76.55,-5.36,104.97,3.87
433,broken hill,20,AU,1601033980,65,46.4,-31.95,141.43,11.41
434,maceio,40,BR,1601033980,73,77.0,-9.67,-35.74,5.82
435,centralia,90,US,1601033980,87,59.0,46.72,-122.95,12.75
436,sovetskiy,76,RU,1601033981,67,47.89,61.36,63.58,6.87
437,padilla,75,CO,1601033981,93,64.4,3.22,-76.31,1.41
438,naryan-mar,95,RU,1601033981,84,53.08,67.67,53.09,12.24
439,karpathos,20,GR,1601033982,65,82.4,35.51,27.21,18.34
440,taungdwingyi,37,MM,1601033982,89,78.22,20.02,95.55,9.53
441,zelenogradsk,41,RU,1601033983,60,75.2,54.96,20.48,13.42
442,fairbanks,90,US,1601033984,100,37.4,64.84,-147.72,1.28
443,porto torres,75,IT,1601033984,60,71.6,40.84,8.4,10.29
444,capitan miranda,56,PY,1601033985,49,71.6,-27.2,-55.8,9.17
445,kaka,0,TM,1601033985,12,82.02,37.35,59.61,6.51
446,yulara,0,AU,1601033986,19,69.8,-25.24,130.99,9.17
447,half moon bay,90,US,1601033986,93,62.6,37.46,-122.43,4.7
448,metu,18,ET,1601033987,92,68.83,8.3,35.58,4.16
449,kargopol,76,RU,1601033987,62,62.98,61.51,38.95,8.48
450,sangar,0,RU,1601033987,49,49.87,63.92,127.47,15.19
451,mananjary,31,MG,1601033988,67,76.35,-21.22,48.33,10.76
452,gizo,90,SB,1601033988,76,82.83,-8.1,156.84,6.31
453,ati,74,TD,1601033988,22,99.25,13.22,18.34,3.27
454,dauriya,100,RU,1601033989,54,52.32,49.93,116.87,17.18
455,novo aripuana,70,BR,1601033989,76,82.6,-5.12,-60.38,0.4
456,batemans bay,51,AU,1601033766,84,52.0,-35.72,150.18,5.01
457,port augusta,40,AU,1601033990,66,50.0,-32.5,137.77,9.17
458,manama,0,BH,1601033990,42,98.6,26.22,50.58,10.29
459,petropavlovskoye,100,RU,1601033991,88,42.01,52.07,84.11,16.84
460,nelson bay,75,AU,1601033991,81,50.0,-32.72,152.15,19.46
461,tete,84,MZ,1601033992,36,91.4,-16.16,33.59,6.93
462,lodwar,5,KE,1601033993,28,95.58,3.12,35.6,10.89
463,darnah,0,LY,1601033994,51,82.45,32.77,22.64,13.58
464,soure,25,BR,1601033994,72,83.64,-0.72,-48.52,11.1
465,rome,90,US,1601033753,93,66.2,34.26,-85.16,5.5
466,biltine,79,TD,1601033995,16,101.14,14.53,20.92,10.51
467,lahad datu,100,MY,1601033996,87,78.64,5.03,118.33,3.89
468,puerto lumbreras,73,ES,1601033996,28,81.0,37.56,-1.81,8.99
469,vavozh,29,RU,1601033996,58,60.71,56.78,51.93,7.23
470,kodiak,90,US,1601033601,76,50.0,57.79,-152.41,9.17
471,komsomolskiy,0,UZ,1601033997,20,77.0,40.43,71.72,4.7
472,faya,0,SA,1601033998,8,86.0,18.39,42.45,6.93
473,roseburg,1,US,1601033850,87,53.6,43.22,-123.34,2.89
474,russell,40,US,1601033999,94,71.6,32.35,-85.2,3.36
475,pimentel,75,PE,1601033999,89,60.64,-6.84,-79.93,7.02
476,mezen,50,RU,1601034000,76,62.26,65.85,44.24,10.63
477,beira,20,MZ,1601034000,57,80.6,-19.84,34.84,14.99
478,dapaong,96,TG,1601034000,57,83.93,10.86,0.2,8.59
479,inirida,49,CO,1601034002,95,75.25,3.87,-67.92,2.95
480,mitu,85,CO,1601034003,90,73.81,1.2,-70.17,1.43
481,mount darwin,44,ZW,1601034003,16,92.71,-16.77,31.58,4.36
482,tala,0,EG,1601034005,23,98.62,30.68,30.94,17.22
483,meadow lake,1,US,1601034006,37,64.0,34.8,-106.54,5.82
484,bilibino,99,RU,1601034006,96,26.31,68.05,166.44,3.15
485,hamilton,20,US,1601033800,93,57.0,39.18,-84.53,3.36
486,hrubieszow,13,PL,1601034007,50,74.52,50.8,23.89,12.01
487,tomatlan,38,MX,1601034007,92,75.81,19.93,-105.25,1.99
488,aguimes,32,ES,1601034008,54,82.4,27.91,-15.45,18.34
489,abu kamal,0,SY,1601034008,19,97.11,34.45,40.92,4.76
490,saint-augustin,2,CA,1601034009,62,42.78,51.23,-58.65,17.58
491,todos santos,0,MX,1601034010,89,77.0,23.45,-110.22,3.0
492,helong,28,CN,1601034010,85,50.95,42.54,129.0,1.1
493,hovd,0,MN,1601034011,41,47.34,48.01,91.64,9.4
494,vetluzhskiy,5,RU,1601034011,58,66.92,58.39,45.47,6.69
495,xingyi,86,CN,1601034012,96,63.52,24.19,102.82,4.54
496,coro,100,VE,1601034012,72,82.74,11.4,-69.67,8.63
497,sioux lookout,90,CA,1601033767,93,53.6,50.1,-91.92,8.05
498,mancio lima,88,BR,1601034013,79,73.71,-7.61,-72.9,2.84
499,kalmunai,100,LK,1601034013,83,79.93,7.42,81.82,2.3
500,urucara,52,BR,1601034014,70,82.54,-2.54,-57.76,1.43
501,flinders,65,AU,1601034015,62,51.01,-34.58,150.86,8.01
502,thinadhoo,50,MV,1601034015,67,83.59,0.53,72.93,7.25
503,kununurra,57,AU,1601034016,62,87.8,-15.77,128.73,10.29
504,wukari,84,NG,1601034016,69,85.86,7.85,9.78,8.16
505,nassau,1,US,1601034017,87,62.01,40.75,-73.58,5.28
506,cervo,47,ES,1601034018,1,66.0,43.67,-7.41,16.96
507,jasidih,94,IN,1601034019,84,81.09,24.52,86.65,6.96
508,aksarka,44,RU,1601034019,75,47.57,66.56,67.8,7.85
509,nakano,100,JP,1601034020,96,64.0,36.75,138.37,3.42
510,bayir,40,TR,1601034020,40,86.0,37.27,28.22,18.34
511,yumen,0,CN,1601034021,25,63.09,40.28,97.2,5.66
512,newport news,90,US,1601033888,100,66.2,36.98,-76.43,4.74
513,novovelichkovskaya,45,RU,1601034021,39,88.0,45.28,38.84,6.71
514,tapejara,10,BR,1601034022,74,64.62,-28.07,-52.01,8.23
515,huangpi,100,CN,1601034022,88,71.6,30.88,114.38,2.24
516,storforshei,75,NO,1601034022,81,50.0,66.4,14.52,11.41
517,deputatskiy,66,RU,1601034023,92,32.05,69.3,139.9,3.47
518,pangkalanbuun,100,ID,1601034024,92,77.07,-2.68,111.62,1.86
519,bam,0,IR,1601034024,10,87.39,29.11,58.36,10.02
520,kaya,75,BF,1601034024,48,91.44,13.09,-1.08,11.12
521,leningradskiy,98,RU,1601034025,96,28.62,69.38,178.42,6.44
522,bloomington,20,US,1601034025,93,60.01,44.84,-93.3,4.7
523,loiza,40,PR,1601034026,83,80.6,18.43,-65.88,4.88
524,nenjiang,4,CN,1601034027,70,51.31,49.18,125.22,2.3
525,bourail,44,NC,1601034027,87,70.92,-21.57,165.48,4.85
526,abu dhabi,14,AE,1601034028,29,104.0,24.47,54.37,12.75
527,sumbe,86,AO,1601034029,67,75.43,-11.21,13.84,8.52
528,lubumbashi,60,CD,1601033789,12,95.58,-11.66,27.48,4.7
529,west wendover,1,US,1601034029,47,55.4,40.74,-114.07,5.82
530,macau,40,MO,1601033809,79,84.2,22.2,113.55,13.87
531,madang,94,PG,1601034030,82,78.17,-5.22,145.8,1.61
532,grand-lahou,99,CI,1601034031,84,77.77,5.14,-5.02,4.29
533,yarmouth,90,US,1601033785,100,64.0,41.71,-70.23,6.78
534,gari,23,RU,1601034032,71,52.7,59.43,62.35,4.18
535,vostok,58,RU,1601034032,91,45.07,46.49,135.88,5.7
536,belmonte,75,BR,1601034033,88,73.4,-15.86,-38.88,2.24
537,chimoio,11,MZ,1601034033,18,92.25,-19.12,33.48,4.79
538,vila franca do campo,75,PT,1601033891,72,68.0,37.72,-25.43,12.75
539,ichinoseki,100,JP,1601034034,89,60.33,38.92,141.13,17.02
540,gunjur,96,GM,1601034034,72,82.98,13.2,-16.73,11.83
541,veraval,28,IN,1601034035,75,82.56,20.9,70.37,12.73
542,port hedland,0,AU,1601034035,65,80.6,-20.32,118.57,11.41
543,nyurba,1,RU,1601034036,67,44.35,63.28,118.33,6.73
544,blythe,1,US,1601034035,22,75.2,33.61,-114.6,8.05
545,tongchuan,100,CN,1601034036,65,65.97,35.08,109.09,2.13
546,culebra,1,PR,1601034037,78,82.4,18.3,-65.3,5.82
547,zatoka,0,UA,1601034037,57,75.2,46.07,30.47,8.95
548,williston,99,US,1601033917,50,55.0,48.15,-103.62,1.01
549,yerofey pavlovich,37,RU,1601034038,92,42.28,53.97,121.97,3.49
550,kalawit,100,PH,1601034038,83,79.79,8.07,122.52,4.83
551,novomyrhorod,38,UA,1601034039,31,80.98,48.78,31.64,12.21
552,patancheru,75,IN,1601034039,83,82.99,17.53,78.27,6.93
553,champerico,83,GT,1601034040,97,64.99,14.3,-91.92,4.41
554,magadan,0,RU,1601034040,64,44.58,59.57,150.8,7.0
555,burns lake,100,CA,1601034041,90,42.35,54.23,-125.75,3.4
556,suntar,5,RU,1601034041,75,45.18,62.14,117.63,6.22
557,bandarbeyla,0,SO,1601034041,59,82.76,9.49,50.81,29.06
558,synya,100,RU,1601034042,91,47.73,65.37,58.04,7.72
559,kutum,88,SD,1601034042,17,92.68,14.2,24.67,16.67
560,san vicente,10,AR,1601034042,45,77.0,-26.62,-54.13,4.36
561,malacacheta,60,BR,1601034043,71,68.95,-17.84,-42.08,4.92
562,zhigansk,0,RU,1601034043,61,43.52,66.77,123.37,6.2
563,poronaysk,59,RU,1601034044,81,50.76,49.22,143.12,4.05
564,nishihara,40,JP,1601034045,74,80.6,26.18,127.76,11.41
565,vangaindrano,77,MG,1601034045,70,74.48,-23.35,47.6,10.47
566,manaus,75,BR,1601033994,94,73.4,-3.1,-60.02,6.93
567,sayyan,0,YE,1601034046,17,75.63,15.17,44.32,10.74
568,kedrovyy,75,RU,1601034047,81,46.4,56.17,91.82,13.42
569,sarai,52,RU,1601034047,42,70.77,53.75,41.02,10.4
570,praia,40,CV,1601033996,70,84.2,14.92,-23.51,12.75
571,oranjemund,99,NA,1601034047,66,60.91,-28.55,16.43,13.24
572,kokstad,47,ZA,1601034048,13,89.08,-30.55,29.42,17.07
573,the valley,20,AI,1601034048,83,84.99,18.22,-63.06,4.7
574,aykhal,0,RU,1601034048,52,42.8,66.0,111.5,6.71
575,mago,16,RU,1601034049,93,45.86,53.25,140.18,4.99
576,mao,20,ES,1601034017,38,73.4,39.89,4.27,21.92
577,borba,100,BR,1601034049,88,78.8,-4.39,-59.59,2.77
578,bosobolo,100,CD,1601034050,90,73.56,4.18,19.9,3.29
579,wegorzewo,44,PL,1601034050,57,73.13,54.22,21.74,15.66
580,san joaquin,83,VE,1601034051,80,76.35,10.26,-67.79,1.99
581,tortoli,20,IT,1601033836,47,77.0,39.93,9.66,17.22
582,charters towers,59,AU,1601034051,65,72.93,-20.1,146.27,5.06
583,tarakan,53,ID,1601034052,78,83.05,3.3,117.63,12.5
584,mokhsogollokh,28,RU,1601034052,62,49.05,61.47,128.92,6.91
585,englewood,1,US,1601033805,35,64.0,39.65,-104.99,4.7
586,guozhen,100,CN,1601034053,69,65.66,34.37,107.36,1.66
587,langham,5,CA,1601034053,86,41.0,52.37,-106.97,11.41
588,santa cruz,0,BO,1601033923,69,78.8,-17.8,-63.17,13.87
