City_ID,City,Latitude,Longitude,Country,Wind Speed,Max Temp,Humidity,Cloudiness,Date
0,sagone,42.12,8.7,FR,13.87,62.6,59,84,1601081752
1,banda aceh,5.56,95.32,ID,6.78,80.35,71,100,1601081530
2,kiunga,-6.12,141.29,PG,3.69,80.08,82,100,1601081752
3,tautira,-17.73,-149.15,PF,12.75,84.2,66,40,1601081753
4,khatanga,71.97,102.5,RU,14.74,40.1,84,100,1601081753
5,leningradskiy,69.38,178.42,RU,4.92,27.1,93,98,1601081753
6,kodiak,57.79,-152.41,US,8.05,51.8,71,90,1601081753
7,nanortalik,60.14,-45.24,GL,13.82,38.23,87,100,1601081754
8,bluff,-46.6,168.33,NZ,11.01,60.01,57,100,1601081754
9,avarua,-21.21,-159.78,CK,17.22,77.0,78,98,1601081754
10,port alfred,-33.59,26.89,ZA,23.55,58.55,74,96,1601081754
11,lebu,-37.62,-73.65,CL,8.59,49.89,81,98,1601081755
12,hobart,-42.88,147.33,AU,12.75,52.0,46,75,1601081464
13,severo-kurilsk,50.68,156.12,RU,15.28,49.91,63,0,1601081755
14,meulaboh,4.14,96.13,ID,3.85,76.82,83,100,1601081755
15,arraias,-12.93,-46.94,BR,2.53,73.67,61,51,1601081755
16,hermanus,-34.42,19.23,ZA,4.0,48.0,87,3,1601081756
17,bredasdorp,-34.53,20.04,ZA,14.99,48.2,81,9,1601081756
18,nizhniy baskunchak,48.22,46.83,RU,14.09,61.48,43,1,1601081756
19,bengkulu,-3.8,102.27,ID,2.46,77.61,84,96,1601081756
20,rikitea,-23.12,-134.97,PF,13.38,73.65,82,79,1601081515
21,albany,42.6,-73.97,US,3.33,71.01,98,0,1601081674
22,punta arenas,-53.15,-70.92,CL,17.22,44.6,65,98,1601081757
23,katsuura,35.13,140.3,JP,9.17,71.6,88,75,1601081757
24,barranca de upia,4.57,-72.97,CO,1.74,75.69,79,74,1601081757
25,lorengau,-2.02,147.27,PG,8.63,86.43,64,98,1601081758
26,arraial do cabo,-22.97,-42.03,BR,14.99,71.6,94,40,1601081758
27,cherskiy,68.75,161.3,RU,11.56,38.86,84,100,1601081758
28,thompson,55.74,-97.86,CA,11.41,51.8,93,90,1601081758
29,vardo,70.37,31.11,NO,26.4,48.2,76,75,1601081759
30,chokurdakh,70.63,147.92,RU,9.35,45.41,57,13,1601081759
31,cabedelo,-6.98,-34.83,BR,4.7,71.6,88,0,1601081759
32,vaini,-21.2,-175.2,TO,10.29,78.8,78,75,1601081759
33,fallon,39.47,-118.78,US,3.36,84.2,12,75,1601081760
34,kavaratti,10.57,72.64,IN,7.83,81.46,78,100,1601081760
35,oktyabrskoye,43.06,44.74,RU,2.24,55.4,93,100,1601081760
36,ostrovnoy,68.05,39.51,RU,17.02,49.53,79,100,1601081761
37,souillac,-20.52,57.52,MU,11.41,71.6,78,40,1601081761
38,kargasok,59.06,80.86,RU,9.4,35.2,94,0,1601081761
39,hilo,19.73,-155.09,US,11.41,80.01,78,90,1601081679
40,pevek,69.7,170.31,RU,9.37,33.87,92,100,1601081761
41,mangai,-4.05,19.53,CD,2.04,69.06,96,100,1601081762
42,verkhnyaya toyma,62.23,45.0,RU,3.74,50.77,95,47,1601081762
43,atuona,-9.8,-139.03,PF,17.6,78.22,74,8,1601081762
44,cape town,-33.93,18.42,ZA,4.7,51.01,87,40,1601081575
45,dikson,73.51,80.55,RU,21.05,43.7,75,100,1601081763
46,laranjeiras do sul,-25.41,-52.42,BR,3.27,65.19,71,71,1601081763
47,izumo,35.37,132.77,JP,14.99,69.8,88,75,1601081763
48,esso,55.93,158.7,RU,9.31,41.5,63,0,1601081763
49,cap malheureux,-19.98,57.61,MU,1.99,69.01,80,6,1601081764
50,lompoc,34.64,-120.46,US,14.99,66.2,72,1,1601081764
51,darnah,32.77,22.64,LY,20.42,80.69,36,0,1601081704
52,bethel,41.37,-73.41,US,2.84,66.2,82,1,1601081764
53,mar del plata,-38.0,-57.56,AR,6.93,53.01,100,90,1601081572
54,slave lake,55.28,-114.77,CA,4.7,62.6,42,75,1601081765
55,flinders,-34.58,150.86,AU,18.01,57.99,43,0,1601081765
56,new norfolk,-42.78,147.06,AU,12.75,50.0,46,75,1601081765
57,tres arroyos,-38.37,-60.28,AR,7.92,57.65,96,100,1601081765
58,negombo,7.21,79.84,LK,2.24,75.2,94,40,1601081765
59,jabinyanah,35.03,10.91,TN,13.87,78.8,57,20,1601081766
60,chapais,49.78,-74.85,CA,6.93,48.2,61,90,1601081766
61,touros,-5.2,-35.46,BR,6.93,75.2,78,0,1601081766
62,nelson,-41.28,173.28,NZ,8.01,64.99,50,27,1601081766
63,sur,22.57,59.53,OM,5.37,82.27,55,0,1601081767
64,victoria,22.29,114.16,HK,3.0,82.99,79,99,1601081588
65,busselton,-33.65,115.33,AU,1.99,52.0,91,0,1601081767
66,cabo san lucas,22.89,-109.91,MX,9.17,86.0,79,5,1601081623
67,sabla,12.75,4.71,NG,8.52,77.88,72,30,1601081767
68,ugoofaaru,5.67,73.0,MV,11.01,81.28,80,59,1601081768
69,cascais,38.7,-9.42,PT,21.34,62.01,74,0,1601081768
70,westport,41.14,-73.36,US,6.93,69.8,77,1,1601081503
71,harrison,30.41,-89.04,US,4.7,73.4,78,20,1601081768
72,toba,34.48,136.85,JP,14.99,82.0,73,75,1601081768
73,bhadra,29.12,75.17,IN,2.84,86.58,30,53,1601081769
74,plouzane,48.38,-4.62,FR,8.05,53.6,81,75,1601081769
75,puerto ayora,-0.74,-90.35,EC,5.01,69.01,86,61,1601081769
76,pitimbu,-7.47,-34.81,BR,4.7,71.6,88,0,1601081496
77,dunedin,-45.87,170.5,NZ,14.0,55.99,69,50,1601081770
78,salalah,17.02,54.09,OM,4.7,80.6,69,75,1601081770
79,mataura,-46.19,168.86,NZ,11.01,60.01,57,100,1601081770
80,stolin,51.89,26.85,BY,10.6,61.18,77,100,1601081770
81,rockport,28.02,-97.05,US,12.75,80.01,69,1,1601081634
82,ushuaia,-54.8,-68.3,AR,6.93,46.4,83,40,1601081515
83,tuatapere,-46.13,167.68,NZ,11.01,60.01,57,100,1601081771
84,castro,-24.79,-50.01,BR,5.35,62.47,67,100,1601081771
85,gatak,-7.59,110.7,ID,9.17,78.8,78,91,1601081771
86,chuy,-33.7,-53.46,UY,9.46,58.6,88,100,1601081772
87,yenagoa,4.92,6.26,NG,2.37,74.93,95,100,1601081772
88,san clemente,33.43,-117.61,US,3.85,73.0,79,16,1601081573
89,lata,40.16,-8.33,PT,1.01,57.99,79,0,1601081772
90,kapaa,22.08,-159.32,US,12.75,86.0,58,1,1601081772
91,norman wells,65.28,-126.83,CA,11.41,42.8,87,75,1601081773
92,ukiah,39.15,-123.21,US,11.41,78.8,26,1,1601081773
93,hithadhoo,-0.6,73.08,MV,4.03,82.06,67,100,1601081773
94,east london,-33.02,27.91,ZA,18.79,62.1,64,100,1601081773
95,katima mulilo,-17.5,24.27,NA,3.36,75.2,29,0,1601081774
96,los llanos de aridane,28.66,-17.92,ES,12.75,79.0,78,93,1601081774
97,bandarbeyla,9.49,50.81,SO,21.65,76.3,77,22,1601081774
98,eagle pass,28.71,-100.5,US,8.05,91.4,63,5,1601081774
99,impfondo,1.64,18.07,CG,2.21,71.19,94,100,1601081775
100,pelym,61.01,62.0,RU,3.4,46.51,86,100,1601081775
101,riyadh,24.69,46.72,SA,2.24,80.6,26,3,1601081768
102,port elizabeth,-33.92,25.57,ZA,24.16,53.6,87,40,1601081668
103,nanakuli,21.39,-158.15,US,9.17,89.6,43,20,1601081775
104,san ramon,37.78,-121.98,US,11.41,79.0,36,1,1601081776
105,upernavik,72.79,-56.15,GL,8.01,24.46,85,100,1601081776
106,visnes,59.36,5.22,NO,12.75,53.01,76,100,1601081776
107,cidreira,-30.18,-50.21,BR,12.35,64.17,86,99,1601081776
108,arlington heights,42.09,-87.98,US,8.05,75.2,50,1,1601081776
109,honningsvag,70.98,25.97,NO,29.97,44.6,81,75,1601081777
110,tshikapa,-6.42,20.8,CD,2.89,71.94,87,71,1601081777
111,mnogovershinnyy,53.94,139.92,RU,4.27,48.85,77,100,1601081777
112,ilulissat,69.22,-51.1,GL,12.75,35.6,80,100,1601081778
113,porbandar,21.64,69.61,IN,12.88,81.1,76,100,1601081778
114,farafangana,-22.82,47.83,MG,10.29,67.48,86,1,1601081778
115,kulachi,31.93,70.46,PK,5.82,79.48,18,0,1601081778
116,gogrial,8.53,28.1,SS,6.31,71.58,90,100,1601081778
117,wajir,1.75,40.06,KE,11.77,72.59,69,0,1601081779
118,okhotsk,59.38,143.3,RU,5.7,54.12,45,18,1601081779
119,whyalla,-33.03,137.58,AU,13.87,53.6,71,90,1601081779
120,srednekolymsk,67.45,153.68,RU,7.58,45.99,57,100,1601081780
121,brae,60.4,-1.35,GB,14.99,46.4,75,0,1601081780
122,whitehorse,60.72,-135.05,CA,9.17,51.8,53,75,1601081780
123,barrow,71.29,-156.79,US,16.11,33.8,80,90,1601081780
124,yar-sale,66.83,70.83,RU,10.36,38.41,92,100,1601081780
125,cayenne,4.93,-52.33,GF,9.01,77.0,100,0,1601081781
126,hambantota,6.12,81.12,LK,4.7,75.2,100,75,1601081781
127,birjand,32.87,59.22,IR,4.7,48.2,14,0,1601081781
128,ramhormoz,31.28,49.6,IR,1.21,75.36,20,0,1601081781
129,san patricio,19.22,-104.7,MX,9.17,87.8,79,40,1601081782
130,jamestown,42.1,-79.24,US,5.48,66.2,63,1,1601081782
131,butaritari,3.07,172.79,KI,13.47,81.5,73,46,1601081782
132,kahului,20.89,-156.47,US,25.28,89.6,49,40,1601081782
133,mosquera,4.71,-74.23,CO,8.05,57.2,67,75,1601081783
134,saskylakh,71.92,114.08,RU,5.82,39.67,70,39,1601081783
135,deori khas,23.4,79.02,IN,4.61,72.91,89,100,1601081783
136,ambajogai,18.73,76.38,IN,10.22,71.28,93,74,1601081783
137,estevan,49.13,-102.98,CA,11.41,68.0,24,1,1601081784
138,kloulklubed,7.04,134.26,PW,8.05,73.4,94,90,1601081784
139,laguna,38.42,-121.42,US,5.82,89.01,30,1,1601081784
140,ribeira grande,38.52,-28.7,PT,13.18,68.7,76,4,1601081784
141,marzuq,14.4,46.47,YE,3.09,76.06,47,0,1601081785
142,savelugu,9.62,-0.83,GH,0.25,72.36,83,100,1601081785
143,zheleznodorozhnyy,55.75,38.0,RU,4.47,55.0,93,33,1601081785
144,goderich,43.75,-81.72,CA,12.66,64.0,78,0,1601081785
145,kununurra,-15.77,128.73,AU,5.82,87.8,58,21,1601081786
146,yellowknife,62.46,-114.35,CA,5.82,48.2,81,90,1601081786
147,dabakala,8.37,-4.43,CI,1.41,72.3,96,100,1601081786
148,mariestad,58.71,13.82,SE,12.75,55.99,91,100,1601081786
149,djibo,14.1,-1.63,BF,10.11,84.88,56,9,1601081786
150,sao raimundo nonato,-9.02,-42.7,BR,4.59,75.69,38,100,1601081787
151,adrar,20.5,-10.07,MR,9.55,95.27,13,3,1601081787
152,zhigansk,66.77,123.37,RU,7.83,45.0,55,100,1601081787
153,coquimbo,-29.95,-71.34,CL,6.93,53.6,87,90,1601081788
154,dong hoi,17.48,106.6,VN,5.17,83.41,76,68,1601081788
155,lagoa,39.05,-27.98,PT,12.59,68.13,79,57,1601081788
156,yulara,-25.24,130.99,AU,18.34,64.4,27,0,1601081788
157,te anau,-45.42,167.72,NZ,8.03,49.01,86,95,1601081643
158,sabang,5.89,95.32,ID,11.39,82.4,74,100,1601081789
159,fukue,32.69,128.84,JP,14.99,71.6,78,75,1601081789
160,sisimiut,66.94,-53.67,GL,6.11,37.98,91,100,1601081789
161,vila velha,-20.33,-40.29,BR,5.82,73.4,83,1,1601081518
162,nikolskoye,59.7,30.79,RU,6.71,53.01,87,1,1601081790
163,mehamn,71.04,27.85,NO,29.97,44.6,81,75,1601081790
164,kuryk,43.2,51.65,KZ,19.53,61.81,37,60,1601081790
165,tuktoyaktuk,69.45,-133.04,CA,14.99,37.4,93,90,1601081790
166,buctzotz,21.2,-88.78,MX,5.12,79.63,83,60,1601081791
167,bambanglipuro,-7.95,110.28,ID,10.96,82.35,69,100,1601081791
168,bambous virieux,-20.34,57.76,MU,11.41,71.6,78,40,1601081791
169,tasiilaq,65.61,-37.64,GL,16.11,37.4,74,100,1601081791
170,kochi,9.94,76.26,IN,1.92,77.0,94,75,1601081792
171,haimen,23.19,116.61,CN,6.71,77.0,73,40,1601081792
172,majene,-3.54,118.97,ID,9.08,83.82,67,10,1601081792
173,coihaique,-45.58,-72.07,CL,3.36,48.2,61,5,1601081792
174,ossora,59.24,163.07,RU,16.55,49.6,50,0,1601081793
175,faanui,-16.48,-151.75,PF,13.65,78.82,79,0,1601081793
176,marrakesh,31.63,-8.01,MA,5.82,77.0,47,0,1601081793
177,guirang,11.35,125.12,PH,4.59,85.42,69,100,1601081793
178,grand-santi,4.25,-54.38,GF,1.86,73.45,95,4,1601081794
179,henties bay,-22.12,14.28,NA,11.92,53.01,90,1,1601081794
180,chara,56.91,118.26,RU,4.27,43.59,73,99,1601081794
181,ixtapa,20.7,-105.2,MX,8.05,79.0,83,90,1601081794
182,auki,-8.77,160.7,SB,2.62,86.61,63,100,1601081794
183,charters towers,-20.1,146.27,AU,8.68,84.16,20,5,1601081795
184,praia,14.92,-23.51,CV,3.36,78.8,83,20,1601081795
185,beringovskiy,63.05,179.32,RU,21.77,38.93,74,74,1601081795
186,nikolsk,53.72,46.07,RU,7.31,48.29,65,97,1601081795
187,lasa,46.62,10.7,IT,3.36,32.0,92,90,1601081796
188,shaunavon,49.65,-108.42,CA,16.89,58.68,43,100,1601081796
189,kizema,61.11,44.83,RU,4.52,49.62,96,3,1601081796
190,tiksi,71.69,128.87,RU,11.97,43.93,60,5,1601081796
191,beaune,47.08,4.75,FR,11.41,50.0,71,67,1601081796
192,mount isa,-20.73,139.5,AU,11.41,75.2,25,0,1601081797
193,korla,41.76,86.15,CN,22.1,66.0,71,0,1601081534
194,kruisfontein,-34.0,24.73,ZA,8.99,57.0,59,0,1601081797
195,saint george,37.1,-113.58,US,11.41,93.99,10,1,1601081726
196,arman,59.7,150.17,RU,2.37,53.47,46,0,1601081798
197,surt,31.21,16.59,LY,11.34,86.43,30,32,1601081798
198,dollar,56.16,-3.67,GB,4.7,43.0,82,75,1601081798
199,kaitangata,-46.28,169.85,NZ,8.99,55.0,65,81,1601081798
200,kupang,-10.17,123.58,ID,3.36,86.0,58,20,1601081798
201,dicabisagan,17.08,122.42,PH,0.98,85.66,67,100,1601081799
202,manado,1.49,124.85,ID,1.52,80.6,88,20,1601081799
203,olafsvik,64.89,-23.71,IS,35.52,44.85,87,100,1601081799
204,guerrero negro,27.98,-114.06,MX,15.48,72.81,74,0,1601081799
205,masterton,-40.96,175.66,NZ,5.99,64.0,66,85,1601081800
206,cockburn town,21.46,-71.14,TC,14.85,83.55,75,100,1601081800
207,saint-augustin,51.23,-58.65,CA,16.42,43.63,60,100,1601081800
208,saint-francois,46.42,3.91,FR,11.41,48.2,81,29,1601081801
209,esperance,-33.87,121.9,AU,18.34,51.8,66,93,1601081801
210,husavik,66.04,-17.34,IS,11.41,42.8,60,100,1601081801
211,saint-philippe,-21.36,55.77,RE,6.93,64.4,72,39,1601081801
212,chabahar,25.29,60.64,IR,3.11,68.0,82,0,1601081802
213,vila franca do campo,37.72,-25.43,PT,9.17,68.0,72,75,1601081802
214,mahebourg,-20.41,57.7,MU,11.41,71.6,78,40,1601081802
215,talnakh,69.49,88.4,RU,8.95,39.2,100,90,1601081802
216,provideniya,64.38,-173.3,RU,8.63,38.01,70,0,1601081802
217,killybegs,54.63,-8.45,IE,6.31,46.22,66,27,1601081803
218,daru,-9.08,143.21,PG,13.35,81.07,78,29,1601081803
219,el alto,-4.27,-81.21,PE,13.18,60.94,89,0,1601081803
220,vao,-22.67,167.48,NC,19.44,72.84,88,5,1601081804
221,dzhebariki-khaya,62.22,135.8,RU,6.2,54.43,41,10,1601081804
222,gramado,-29.38,-50.87,BR,5.01,64.99,66,96,1601081804
223,hervey bay,-25.3,152.85,AU,12.75,73.4,28,0,1601081804
224,gazimurskiy zavod,51.55,118.33,RU,10.83,52.9,82,100,1601081805
225,paamiut,61.99,-49.67,GL,19.57,39.72,84,100,1601081805
226,nyurba,63.28,118.33,RU,7.05,45.18,74,2,1601081805
227,ngunguru,-35.62,174.5,NZ,7.0,66.0,89,28,1601081805
228,yarada,17.65,83.27,IN,3.36,78.8,94,90,1601081806
229,fortuna,40.6,-124.16,US,11.41,71.01,68,20,1601081806
230,mattru,7.62,-11.83,SL,1.36,72.54,98,100,1601081806
231,fort walton beach,30.41,-86.62,US,7.31,80.6,78,1,1601081739
232,mount gambier,-37.83,140.77,AU,14.99,50.0,76,75,1601081806
233,kamenka,51.32,42.77,RU,10.96,52.92,51,0,1601081807
234,kukuna,9.4,-12.67,SL,2.8,73.36,97,100,1601081807
235,pala,9.36,14.9,TD,4.68,69.01,91,100,1601081807
236,jacareacanga,-6.22,-57.75,BR,2.13,71.33,94,100,1601081807
237,kingsville,27.52,-97.86,US,13.87,82.4,69,1,1601081808
238,cadereyta,25.58,-99.98,MX,8.05,84.2,65,5,1601081808
239,wewak,-3.55,143.63,PG,2.55,84.54,68,81,1601081808
240,zhigalovo,54.81,105.16,RU,3.06,41.32,88,100,1601081808
241,haines city,28.11,-81.62,US,9.17,82.4,78,20,1601081533
242,bam,29.11,58.36,IR,8.39,68.25,19,0,1601081809
243,rognan,67.1,15.39,NO,2.51,39.99,94,100,1601081809
244,sungaipenuh,-2.08,101.38,ID,2.28,67.44,90,100,1601081809
245,najran,17.49,44.13,SA,4.7,71.6,21,0,1601081591
246,valladolid,41.58,-4.67,ES,6.93,48.0,81,2,1601081809
247,emerald,-23.53,148.17,AU,9.17,77.0,22,0,1601081810
248,muisne,0.6,-80.03,EC,6.55,73.63,81,21,1601081810
249,raga,8.46,25.68,SS,3.76,69.22,96,100,1601081810
250,tsuruoka,38.72,139.82,JP,18.34,66.2,77,75,1601081811
251,maputo,-25.97,32.59,MZ,14.2,80.73,24,0,1601081811
252,riviere-au-renard,49.0,-64.4,CA,3.36,37.4,86,5,1601081811
253,mukhen,48.1,136.1,RU,3.67,61.27,54,100,1601081812
254,ponta do sol,32.67,-17.1,PT,17.22,73.4,73,75,1601081812
255,faya,18.39,42.45,SA,5.93,64.4,23,0,1601081812
256,haines junction,60.75,-137.51,CA,0.81,50.85,60,47,1601081812
257,maumere,-8.62,122.21,ID,1.5,84.51,60,29,1601081812
258,along,28.17,94.77,IN,3.53,72.91,90,100,1601081813
259,gunjur,13.2,-16.73,GM,8.39,82.4,94,40,1601081813
260,bilibino,68.05,166.44,RU,2.53,32.68,91,95,1601081813
261,mitu,1.2,-70.17,CO,0.98,73.51,92,99,1601081813
262,ofunato,39.07,141.72,JP,20.8,64.4,72,75,1601081814
263,maridi,4.92,29.47,SS,4.5,66.65,94,35,1601081814
264,myitkyina,25.38,97.4,MM,3.24,74.68,97,100,1601081814
265,evensk,61.95,159.23,RU,7.87,50.95,50,29,1601081814
266,mabaruma,8.2,-59.78,GY,2.91,77.02,85,0,1601081814
267,treinta y tres,-33.23,-54.38,UY,9.55,58.53,81,100,1601081815
268,saint anthony,45.02,-93.22,US,8.05,75.2,64,1,1601081815
269,toyo,10.73,125.02,PH,2.95,86.94,65,42,1601081815
270,ambon,-3.7,128.18,ID,3.36,84.2,79,20,1601081816
271,iqaluit,63.75,-68.51,CA,11.41,32.0,95,75,1601081816
272,san marcos,33.14,-117.17,US,8.05,77.0,73,40,1601081590
273,carutapera,-1.2,-46.02,BR,5.66,76.53,84,15,1601081816
274,dingle,11.0,122.67,PH,7.65,83.79,80,19,1601081816
275,sitka,57.05,-135.33,US,3.56,53.6,87,90,1601081817
276,college,64.86,-147.8,US,1.95,44.6,75,90,1601081817
277,ahipara,-35.17,173.17,NZ,11.1,66.27,80,4,1601081817
278,sao joao da barra,-21.64,-41.05,BR,17.02,72.86,85,0,1601081817
279,porto velho,-8.76,-63.9,BR,3.36,73.4,94,20,1601081818
280,qaanaaq,77.48,-69.36,GL,6.71,12.92,80,0,1601081818
281,torbay,47.67,-52.73,CA,19.46,51.01,76,5,1601081818
282,mortka,59.33,66.02,RU,4.81,44.55,85,100,1601081818
283,high level,58.52,-117.14,CA,3.36,57.2,67,40,1601081819
284,alofi,-19.06,-169.92,NU,19.46,78.8,69,75,1601081819
285,kibaya,-5.3,36.57,TZ,5.61,58.28,87,34,1601081819
286,jagalur,14.53,76.35,IN,13.69,70.43,93,100,1601081819
287,buchanan,5.88,-10.05,LR,7.72,76.62,88,93,1601081820
288,karratha,-20.74,116.85,AU,15.17,72.5,48,100,1601081820
289,zaltan,32.95,11.87,LY,26.57,79.75,74,0,1601081820
290,constitucion,-35.33,-72.42,CL,0.94,50.88,75,98,1601081820
291,luderitz,-26.65,15.16,NA,9.51,56.19,76,42,1601081821
292,koutsouras,35.03,25.95,GR,1.99,72.0,73,0,1601081821
293,livingston,55.9,-3.52,GB,4.7,42.8,86,75,1601081821
294,batemans bay,-35.72,150.18,AU,10.0,62.01,61,12,1601081821
295,gladstone,-23.85,151.25,AU,9.17,82.4,30,0,1601081822
296,carnarvon,-24.87,113.63,AU,13.87,71.6,49,0,1601081822
297,katherine,-14.47,132.27,AU,4.7,87.8,48,14,1601081822
298,barao de melgaco,-16.19,-55.97,BR,2.35,93.2,20,54,1601081822
299,muzhi,65.37,64.67,RU,5.91,40.6,93,87,1601081822
300,kavieng,-2.57,150.8,PG,9.57,85.15,71,23,1601081823
301,deer lake,49.17,-57.43,CA,10.29,42.8,81,75,1601081823
302,bistra,46.38,23.1,RO,8.05,68.0,60,100,1601081823
303,maralal,1.1,36.7,KE,2.44,58.73,89,17,1601081823
304,saint-paul,-21.01,55.27,RE,16.11,71.6,60,90,1601081824
305,mayskiy,47.69,40.1,RU,17.9,66.2,39,31,1601081824
306,roald,62.58,6.13,NO,26.4,50.0,66,100,1601081824
307,koster,-25.86,26.9,ZA,1.19,59.86,31,85,1601081824
308,mayo,38.89,-76.51,US,5.82,66.2,93,20,1601081824
309,rorvik,64.86,11.24,NO,19.73,48.22,72,100,1601081825
310,cayhagan,9.67,122.43,PH,9.22,84.79,74,99,1601081825
311,juneau,58.3,-134.42,US,10.29,54.0,76,75,1601081700
312,skibbereen,51.55,-9.27,IE,5.82,46.4,75,100,1601081825
313,hobyo,5.35,48.53,SO,21.79,75.72,84,100,1601081826
314,berlevag,70.86,29.09,NO,29.97,44.6,81,75,1601081826
315,gizo,-8.1,156.84,SB,5.08,84.88,67,100,1601081826
316,asyut,27.18,31.18,EG,11.41,78.8,54,0,1601081826
317,seryshevo,51.09,128.38,RU,10.85,56.8,85,100,1601081827
318,geraldton,-28.77,114.6,AU,6.93,64.4,77,40,1601081827
319,itarema,-2.92,-39.92,BR,14.2,77.52,83,15,1601081827
320,quatre cocos,-20.21,57.76,MU,11.41,71.6,78,40,1601081827
321,prescott,34.54,-112.47,US,12.75,84.2,16,1,1601081651
322,pangnirtung,66.15,-65.71,CA,6.13,35.06,81,100,1601081828
323,half moon bay,37.46,-122.43,US,12.75,72.0,77,20,1601081828
324,karaton,-6.34,106.1,ID,3.36,84.99,83,20,1601081828
325,rochegda,62.8,43.25,RU,4.41,49.44,97,23,1601081828
326,villamontes,-21.25,-63.5,BO,4.43,84.58,34,0,1601081829
327,road town,18.42,-64.62,VG,7.0,82.99,89,100,1601081674
328,ouro preto do oeste,-10.75,-62.22,BR,0.4,83.61,56,100,1601081829
329,itupiranga,-5.13,-49.33,BR,3.36,78.8,88,100,1601081829
330,casablanca,33.59,-7.62,MA,6.93,69.01,88,26,1601081790
331,binga,-17.62,27.34,ZW,1.41,70.59,40,0,1601081830
332,hovd,48.01,91.64,MN,3.15,39.43,61,0,1601081830
333,nome,64.5,-165.41,US,12.75,37.4,51,75,1601081830
334,alice springs,-23.7,133.88,AU,13.87,66.2,25,0,1601081624
335,vizinga,61.07,50.1,RU,4.63,49.23,95,64,1601081831
336,bridgetown,13.1,-59.62,BB,8.05,82.4,83,20,1601081580
337,caravelas,-17.71,-39.25,BR,5.3,72.0,84,0,1601081831
338,flin flon,54.77,-101.86,CA,6.06,54.86,68,86,1601081831
339,abu kamal,34.45,40.92,SY,6.93,75.31,36,0,1601081831
340,sola,-13.88,167.55,VU,5.82,86.0,79,75,1601081832
341,ashta,23.02,76.72,IN,4.7,75.2,100,75,1601081832
342,necochea,-38.55,-58.74,AR,3.94,54.0,94,100,1601081832
343,kyra,49.58,111.98,RU,8.43,52.9,75,48,1601081832
344,egvekinot,66.32,-179.17,RU,9.4,32.47,86,40,1601081833
345,novoseleznevo,55.68,69.21,RU,4.36,37.26,90,0,1601081833
346,ginir,7.13,40.7,ET,4.34,59.72,90,52,1601081833
347,diu,20.71,70.98,IN,10.29,78.64,82,60,1601081833
348,lavrentiya,65.58,-171.0,RU,13.13,37.96,74,87,1601081833
349,shubarkuduk,49.14,56.49,KZ,10.0,47.35,56,0,1601081834
350,wenling,28.37,121.36,CN,8.12,73.99,77,100,1601081834
351,jutai,-5.18,-68.9,BR,2.57,74.44,92,98,1601081834
352,svetlyy,54.67,20.13,RU,6.71,62.6,88,100,1601081834
353,vanimo,-2.67,141.3,PG,4.38,78.87,85,100,1601081835
354,port macquarie,-31.43,152.92,AU,17.22,64.4,25,0,1601081709
355,alta floresta,-9.88,-56.09,BR,3.22,74.8,80,72,1601081835
356,prince rupert,54.32,-130.32,CA,11.41,51.8,93,90,1601081835
357,praia da vitoria,38.73,-27.07,PT,13.85,68.0,82,75,1601081836
358,gimli,50.63,-96.99,CA,8.77,66.99,82,0,1601081836
359,russell,32.35,-85.2,US,2.08,75.2,88,1,1601081836
360,dukat,62.55,155.55,RU,4.54,38.21,77,83,1601081836
361,airai,-8.93,125.41,TL,3.53,77.61,40,4,1601081836
362,beni suef,29.07,31.1,EG,5.1,73.27,64,0,1601081837
363,churapcha,62.0,132.43,RU,12.48,48.63,58,100,1601081837
364,biggar,55.62,-3.52,GB,4.7,42.8,87,75,1601081837
365,ughelli,5.49,6.01,NG,2.62,74.71,96,100,1601081648
366,biak,-0.91,122.88,ID,5.79,83.05,66,10,1601081838
367,rio de janeiro,-22.9,-43.21,BR,11.41,75.2,83,40,1601081838
368,havoysund,71.0,24.66,NO,19.46,42.8,81,75,1601081838
369,petersburg,37.23,-77.4,US,3.36,63.0,93,90,1601081839
370,kenai,60.55,-151.26,US,10.29,55.4,66,40,1601081839
371,simpang,-1.27,104.08,ID,3.51,70.81,95,100,1601081839
372,port keats,-14.25,129.55,AU,6.96,87.4,58,97,1601081839
373,sao filipe,14.9,-24.5,CV,7.05,79.57,81,26,1601081840
374,lima,-12.04,-77.03,PE,14.99,62.6,77,40,1601081558
375,aksu,41.12,80.26,CN,5.44,62.49,29,0,1601081840
376,kelc,49.48,17.82,CZ,6.93,57.0,100,90,1601081840
377,kutum,14.2,24.67,SD,4.41,80.74,36,92,1601081841
378,muros,42.78,-9.06,ES,3.96,51.01,92,0,1601081841
379,mandalgovi,45.76,106.27,MN,11.95,48.43,55,0,1601081841
380,natitingou,10.3,1.38,BJ,2.24,73.4,100,20,1601081841
381,anadyr,64.75,177.48,RU,8.95,37.4,59,0,1601081841
382,paragominas,-2.97,-47.48,BR,2.59,73.87,91,88,1601081842
383,poum,-20.23,164.02,NC,17.81,77.02,83,0,1601081842
384,molchanovo,57.58,83.77,RU,7.43,37.2,90,93,1601081842
385,heihe,50.24,127.49,CN,6.35,48.2,100,90,1601081842
386,vuktyl,63.86,57.31,RU,8.95,47.97,97,99,1601081843
387,qingdao,36.1,120.37,CN,6.71,71.01,72,0,1601081843
388,barra patuca,15.8,-84.28,HN,8.3,82.36,79,0,1601081843
389,ancud,-41.87,-73.82,CL,3.6,48.99,86,0,1601081843
390,melk,48.23,15.33,AT,1.99,43.0,87,100,1601081844
391,jasper,37.2,-94.35,US,11.41,75.2,60,1,1601081844
392,portland,45.52,-122.68,US,6.35,63.0,88,90,1601081702
393,iwamizawa,43.2,141.76,JP,1.12,66.2,77,75,1601081844
394,praya,14.92,-23.51,CV,3.36,78.8,83,20,1601081844
395,mulege,26.88,-111.98,MX,3.62,91.29,36,0,1601081845
396,okato,-39.2,173.88,NZ,14.0,59.0,91,58,1601081845
397,berezovyy,51.67,135.7,RU,3.24,58.21,60,8,1601081845
398,dovolnoye,54.5,79.67,RU,11.14,44.31,90,100,1601081845
399,aklavik,68.22,-135.01,CA,11.41,37.4,93,90,1601081846
400,longyearbyen,78.22,15.64,SJ,6.93,30.2,68,75,1601081846
401,hamilton,39.18,-84.53,US,4.7,71.6,88,1,1601081846
402,makakilo city,21.35,-158.09,US,9.17,89.6,43,20,1601081846
403,bjornevatn,69.67,29.98,NO,38.03,44.6,75,5,1601081846
404,tanabe,33.73,135.37,JP,10.29,73.4,78,75,1601081847
405,gravdal,68.12,13.5,NO,10.33,44.11,62,100,1601081847
406,callaway,30.15,-85.57,US,5.82,79.0,78,1,1601081847
407,pacific grove,36.62,-121.92,US,12.75,66.99,72,20,1601081847
408,aykhal,66.0,111.5,RU,4.47,30.2,86,40,1601081848
409,merauke,-8.47,140.33,ID,10.67,83.14,66,89,1601081700
410,egersund,58.45,6.0,NO,11.41,53.6,71,90,1601081848
411,iki-burul,45.82,44.65,RU,11.18,55.4,71,0,1601081848
412,zarubino,42.63,131.09,RU,6.44,61.27,72,14,1601081848
413,eureka,40.8,-124.16,US,1.99,69.01,76,84,1601081601
414,namibe,-15.2,12.15,AO,6.06,62.02,89,94,1601081849
415,ginda,30.69,78.49,IN,3.36,73.4,94,40,1601081849
416,kirkland lake,48.14,-80.04,CA,6.93,55.4,93,1,1601081850
417,kichera,55.94,110.1,RU,0.76,46.81,85,100,1601081850
418,outlook,51.5,-107.05,CA,1.99,61.0,42,100,1601081850
419,lashio,22.93,97.75,MM,1.95,70.65,99,100,1601081850
420,atherton,53.52,-2.49,GB,8.01,45.0,74,0,1601081851
421,lublin,51.0,23.0,PL,6.93,62.6,93,100,1601081851
422,george town,5.41,100.34,MY,4.7,78.8,94,20,1601081641
423,byron bay,-28.65,153.62,AU,21.92,69.01,19,0,1601081851
424,vestmannaeyjar,63.44,-20.27,IS,34.94,48.0,76,100,1601081851
425,liverpool,53.41,-2.98,GB,8.05,46.99,81,20,1601081763
426,pontianak,-0.03,109.33,ID,6.78,77.76,90,96,1601081852
427,solnechnyy,50.72,136.63,RU,5.37,55.2,70,54,1601081852
428,lahad datu,5.03,118.33,MY,5.88,83.12,73,44,1601081852
429,atar,20.52,-13.05,MR,7.09,93.16,24,0,1601081853
430,yuncheng,35.02,110.99,CN,6.67,70.38,62,63,1601081853
431,isla mujeres,21.23,-86.73,MX,9.17,84.2,79,40,1601081829
432,beloha,-25.17,45.05,MG,7.74,66.33,71,0,1601081853
433,atambua,-9.11,124.89,ID,1.03,87.28,44,48,1601081853
434,taitung,22.76,121.14,TW,6.93,80.6,69,75,1601081854
435,matagami,49.75,-77.63,CA,8.05,53.6,76,75,1601081854
436,peniche,39.36,-9.38,PT,10.0,62.01,73,0,1601081854
437,salinas,36.68,-121.66,US,13.87,68.0,64,1,1601081855
438,xining,36.62,101.77,CN,2.57,52.23,59,100,1601081855
439,kaoma,-14.78,24.8,ZM,4.18,62.13,30,0,1601081855
440,moree,-29.47,149.85,AU,17.22,57.2,41,0,1601081855
441,bontang,0.13,117.5,ID,5.21,83.03,72,99,1601081855
442,bathsheba,13.22,-59.52,BB,8.05,82.4,83,20,1601081856
443,sao jose de ribamar,-2.56,-44.05,BR,10.29,78.8,83,0,1601081856
444,dos hermanas,37.28,-5.92,ES,4.7,66.99,45,30,1601081856
445,veraval,20.9,70.37,IN,12.17,79.66,79,26,1601081856
446,morondava,-20.28,44.28,MG,7.4,73.83,82,82,1601081857
447,yerbogachen,61.28,108.01,RU,7.78,40.77,82,28,1601081857
448,magway,20.15,94.92,MM,11.54,78.13,87,95,1601081857
449,soyo,-6.13,12.37,AO,8.48,73.71,84,36,1601081857
450,isangel,-19.55,169.27,VU,9.17,80.6,83,40,1601081857
451,kayerkan,69.35,87.76,RU,8.95,39.2,100,90,1601081858
452,lydenburg,-25.1,30.46,ZA,1.05,60.01,36,0,1601081858
453,paraibano,-6.43,-43.98,BR,0.31,75.36,43,0,1601081858
454,hasaki,35.73,140.83,JP,12.75,68.0,88,75,1601081858
455,el carmen,8.51,-73.45,CO,3.02,69.94,90,97,1601081859
456,awjilah,29.11,21.29,LY,7.31,81.46,25,0,1601081859
457,malaya serdoba,52.47,44.95,RU,10.33,50.99,55,78,1601081859
458,port hedland,-20.32,118.57,AU,10.29,86.0,28,1,1601081859
459,swellendam,-34.02,20.44,ZA,14.99,48.2,81,12,1601081646
460,domoni,-12.26,44.53,KM,4.59,72.9,77,0,1601081860
461,acajutla,13.59,-89.83,SV,3.56,72.0,100,100,1601081860
462,clyde river,70.47,-68.59,CA,11.41,30.2,86,90,1601081860
463,ibra,22.69,58.53,OM,3.15,75.29,63,0,1601081861
464,puerto del rosario,28.5,-13.86,ES,5.82,75.2,78,0,1601081861
465,fare,-16.7,-151.02,PF,13.8,79.77,78,0,1601081861
466,senador jose porfirio,-2.59,-51.95,BR,5.48,76.3,88,99,1601081861
467,san cristobal,7.77,-72.22,VE,1.79,66.29,86,83,1601081861
468,port augusta,-32.5,137.77,AU,13.87,53.6,71,90,1601081862
469,manokwari,-0.87,134.08,ID,3.2,84.25,65,100,1601081862
470,jiaonan,35.88,119.98,CN,6.71,71.01,72,0,1601081862
471,kontagora,10.4,5.47,NG,3.76,71.96,88,100,1601081863
472,oistins,13.07,-59.53,BB,8.05,82.4,83,20,1601081863
473,natal,-5.79,-35.21,BR,10.29,77.0,73,20,1601081863
474,acapulco,16.86,-99.89,MX,4.7,84.2,70,75,1601081607
475,namtsy,62.72,129.67,RU,6.71,50.0,57,100,1601081863
476,roebourne,-20.78,117.13,AU,14.29,73.96,45,100,1601081864
477,ulaanbaatar,47.91,106.88,MN,8.95,48.2,49,40,1601081864
478,lake charles,30.21,-93.2,US,5.82,78.8,65,75,1601081864
479,nortelandia,-14.45,-56.8,BR,3.2,88.16,33,86,1601081864
480,tura,25.52,90.22,IN,7.18,73.67,98,98,1601081865
481,almeirim,-1.52,-52.58,BR,4.99,81.32,66,0,1601081865
482,zanjan,36.67,48.48,IR,4.5,58.05,47,0,1601081865
483,baykit,61.67,96.37,RU,3.56,40.53,78,0,1601081865
484,gao,16.64,1.64,ML,5.1,90.9,28,76,1601081865
485,los teques,10.34,-67.04,VE,5.82,80.6,83,40,1601081866
486,wencheng,33.06,113.8,CN,5.28,70.84,63,89,1601081866
487,sinnamary,5.38,-52.95,GF,7.94,79.41,84,0,1601081866
488,juybar,36.64,52.91,IR,4.45,67.78,77,0,1601081866
489,rio gallegos,-51.62,-69.22,AR,4.7,48.2,57,0,1601081867
490,san blas,21.52,-105.27,MX,4.7,77.0,69,75,1601081867
491,brodokalmak,55.57,62.08,RU,6.71,35.6,93,100,1601081867
492,mushie,-3.02,16.9,CD,2.44,71.56,91,91,1601081867
493,umm lajj,25.02,37.27,SA,8.79,83.97,52,0,1601081868
494,sambava,-14.27,50.17,MG,9.86,66.9,81,0,1601081650
495,nioro,13.35,-15.75,GM,4.68,76.55,92,100,1601081868
496,plettenberg bay,-34.05,23.37,ZA,14.36,52.03,71,98,1601081868
497,les cayes,18.2,-73.75,HT,3.36,80.19,81,15,1601081869
498,viedma,-40.81,-63.0,AR,9.82,58.84,77,0,1601081869
499,narsaq,60.92,-46.05,GL,4.7,39.2,86,98,1601081869
500,nurota,40.56,65.69,UZ,4.7,51.8,53,22,1601081869
501,strezhevoy,60.73,77.59,RU,2.24,33.8,92,0,1601081869
502,revda,56.8,59.93,RU,3.89,33.8,100,58,1601081870
503,orlik,52.52,99.83,RU,11.01,35.37,75,100,1601081870
504,otukpo,7.19,8.13,NG,4.97,72.41,98,100,1601081870
505,kieta,-6.22,155.63,PG,4.27,86.45,62,56,1601081870
506,indiana,40.0,-86.25,US,2.42,73.4,53,1,1601081644
507,batagay,67.63,134.63,RU,4.18,46.29,54,0,1601081871
508,kirakira,-10.45,161.92,SB,11.61,83.89,75,100,1601081871
509,finschhafen,-6.6,147.87,PG,6.08,82.36,78,100,1601081871
510,tilichiki,60.47,166.1,RU,13.58,42.01,60,0,1601081871
511,shwebo,22.57,95.7,MM,11.36,77.41,87,100,1601081872
512,mana,5.66,-53.78,GF,8.28,79.7,84,0,1601081872
513,port hardy,50.7,-127.42,CA,6.73,55.4,87,75,1601081872
514,kindu,-2.95,25.95,CD,1.43,69.28,98,100,1601081872
515,harlingen,26.19,-97.7,US,9.17,82.4,74,1,1601081777
516,saint-leu,-21.15,55.28,RE,6.93,64.4,72,15,1601081873
517,santa isabel,-23.32,-46.22,BR,2.24,71.6,68,12,1601081873
518,wodonga,-36.12,146.88,AU,8.05,44.6,93,90,1601081873
519,bay roberts,47.6,-53.26,CA,16.08,51.01,62,0,1601081873
520,santa cruz de la palma,28.68,-17.76,ES,12.75,79.0,78,85,1601081874
521,klaksvik,62.23,-6.59,FO,1.12,39.2,93,47,1601081874
522,pierre,44.37,-100.35,US,2.04,73.4,25,1,1601081874
523,taybad,34.74,60.78,IR,9.66,56.35,32,0,1601081874
524,springbok,-29.66,17.89,ZA,11.16,42.96,91,68,1601081874
525,tarko-sale,64.92,77.78,RU,7.45,42.01,84,100,1601081681
526,phuket,8.0,98.25,TH,1.12,82.0,100,40,1601081829
527,boguchany,58.38,97.45,RU,7.07,46.08,89,100,1601081875
528,lencois paulista,-22.6,-48.8,BR,5.01,75.99,42,0,1601081630
529,camaqua,-30.85,-51.81,BR,5.06,59.25,90,11,1601081875
530,garowe,8.41,48.48,SO,17.27,75.56,63,41,1601081876
531,tigre,-34.43,-58.58,AR,16.11,60.01,77,90,1601081876
532,touho,-20.78,165.23,NC,9.19,76.78,82,19,1601081876
533,hofn,64.25,-15.21,IS,0.87,38.93,88,100,1601081876
534,lakes entrance,-37.88,147.98,AU,5.01,50.0,88,100,1601081717
535,seydisehir,37.42,31.85,TR,3.0,58.26,67,0,1601081877
536,paracelis,17.27,121.47,PH,3.04,81.36,77,94,1601081877
537,dafeng,23.45,108.59,CN,2.98,75.33,86,95,1601081877
538,sorland,67.67,12.69,NO,9.82,44.89,59,100,1601081878
539,mgachi,51.05,142.27,RU,2.51,61.02,60,89,1601081878
540,iskateley,67.68,53.15,RU,16.08,51.42,93,22,1601081878
541,trelew,-43.25,-65.31,AR,5.17,56.68,43,0,1601081878
542,karatau,43.17,70.47,KZ,6.33,42.87,61,100,1601081879
543,kresek,-6.13,106.38,ID,3.36,87.01,83,20,1601081879
544,svetlaya,46.54,138.33,RU,16.89,57.83,72,100,1601081879
545,richards bay,-28.78,32.04,ZA,16.37,67.5,73,38,1601081879
546,mercedes,-34.65,-59.43,AR,8.01,57.0,56,100,1601081879
547,dawlatabad,36.41,64.91,AF,5.73,56.26,33,0,1601081880
548,codrington,-38.27,141.97,AU,17.43,50.23,77,100,1601081880
549,avera,33.19,-82.53,US,4.07,75.2,85,1,1601081880
550,havre-saint-pierre,50.23,-63.6,CA,6.93,39.2,93,1,1601081880
551,nebbi,2.48,31.09,UG,3.83,66.34,81,99,1601081881
552,harper,4.38,-7.72,LR,9.6,75.92,91,48,1601081881
553,noshiro,40.2,140.02,JP,8.05,62.6,77,75,1601081881
554,komsomolskiy,40.43,71.72,UZ,2.24,53.6,58,0,1601081881
555,taltal,-25.4,-70.48,CL,2.93,57.18,73,61,1601081882
556,grakhovo,56.05,51.97,RU,6.71,42.8,81,83,1601081882
557,moussoro,13.64,16.49,TD,4.47,89.28,39,100,1601081882
558,gigmoto,13.78,124.39,PH,8.59,85.35,70,100,1601081882
