City_ID,City,Latitude,Longitude,Country,Wind Speed,Max Temp,Humidity,Cloudiness,Date
0,honiara,-9.43,159.95,SB,12.75,87.8,62,40,1601166207
1,san vicente de canete,-13.08,-76.38,PE,3.87,61.05,80,12,1601166207
2,klaksvik,62.23,-6.59,FO,11.41,44.6,87,100,1601166207
3,kysyl-syr,63.9,122.76,RU,6.33,47.34,91,100,1601166207
4,haines junction,60.75,-137.51,CA,7.2,49.55,65,88,1601166182
5,cape town,-33.93,18.42,ZA,4.7,46.4,93,40,1601166083
6,hangu,39.25,117.79,CN,2.24,68.0,82,0,1601166208
7,ushuaia,-54.8,-68.3,AR,20.8,37.4,74,40,1601166083
8,ambilobe,-13.2,49.05,MG,3.94,66.24,83,0,1601166208
9,mudon,16.26,97.72,MM,2.42,77.22,89,94,1601166208
10,punta arenas,-53.15,-70.92,CL,5.82,41.0,65,75,1601166013
11,politika,38.6,23.55,GR,8.05,69.01,42,20,1601166209
12,necochea,-38.55,-58.74,AR,7.0,52.0,99,100,1601166209
13,sinnamary,5.38,-52.95,GF,10.22,79.75,81,7,1601166210
14,port alfred,-33.59,26.89,ZA,15.99,52.95,63,0,1601166210
15,rikitea,-23.12,-134.97,PF,13.91,74.43,84,0,1601166210
16,tasiilaq,65.61,-37.64,GL,5.7,34.52,90,100,1601166210
17,lagoa,39.05,-27.98,PT,15.59,69.48,84,0,1601166188
18,busselton,-33.65,115.33,AU,3.44,52.0,100,94,1601166211
19,tuktoyaktuk,69.45,-133.04,CA,13.87,37.4,93,90,1601166199
20,bejar,40.39,-5.76,ES,1.01,61.0,60,66,1601166211
21,torbay,47.67,-52.73,CA,16.11,53.01,71,20,1601166211
22,yenagoa,4.92,6.26,NG,2.35,73.83,95,100,1601166212
23,asau,46.43,26.4,RO,5.3,54.0,98,71,1601166212
24,geraldton,-28.77,114.6,AU,6.93,62.6,82,90,1601166212
25,osakarovka,50.56,72.57,KZ,5.75,36.27,89,26,1601166213
26,tessalit,20.2,1.01,ML,10.04,87.91,12,0,1601166213
27,cayenne,4.93,-52.33,GF,2.24,80.6,83,0,1601166207
28,butaritari,3.07,172.79,KI,10.96,82.22,74,88,1601166213
29,avarua,-21.21,-159.78,CK,6.93,73.4,78,60,1601166214
30,port moresby,-9.44,147.18,PG,11.41,84.2,74,40,1601166214
31,hamilton,39.18,-84.53,US,4.7,71.01,77,1,1601165931
32,hermanus,-34.42,19.23,ZA,6.11,44.01,94,39,1601166059
33,amambai,-23.1,-55.23,BR,5.64,79.83,35,0,1601166214
34,cabo san lucas,22.89,-109.91,MX,6.93,86.0,74,20,1601166215
35,longyearbyen,78.22,15.64,SJ,5.82,28.4,79,75,1601166215
36,bethel,41.37,-73.41,US,4.25,68.0,88,75,1601166215
37,bambous virieux,-20.34,57.76,MU,3.36,68.0,88,75,1601166215
38,fukue,32.69,128.84,JP,18.34,73.4,69,40,1601166216
39,saint george,37.1,-113.58,US,14.99,91.4,8,1,1601166216
40,merauke,-8.47,140.33,ID,9.93,83.64,64,64,1601166216
41,atuona,-9.8,-139.03,PF,13.56,78.28,74,1,1601166114
42,vaini,-21.2,-175.2,TO,11.41,78.8,69,20,1601166217
43,vila franca do campo,37.72,-25.43,PT,11.41,69.8,83,75,1601166217
44,chuy,-33.7,-53.46,UY,12.26,60.91,93,98,1601166217
45,nikolskoye,59.7,30.79,RU,8.95,55.0,87,10,1601166217
46,bluff,-46.6,168.33,NZ,15.99,46.0,87,100,1601166218
47,vytegra,61.01,36.45,RU,6.24,52.09,88,5,1601166218
48,tahe,52.33,124.73,CN,2.66,54.23,91,100,1601166218
49,chokurdakh,70.63,147.92,RU,13.09,41.63,64,90,1601166218
50,college,64.86,-147.8,US,3.36,53.6,58,40,1601166219
51,iqaluit,63.75,-68.51,CA,9.17,28.4,79,90,1601166219
52,invermere,50.52,-116.04,CA,4.63,48.99,65,38,1601166219
53,nanortalik,60.14,-45.24,GL,12.64,38.07,82,71,1601166220
54,ingham,42.6,-84.38,US,6.93,72.0,60,1,1601166081
55,kruisfontein,-34.0,24.73,ZA,3.0,48.99,74,0,1601166220
56,beidao,34.57,105.89,CN,4.99,59.52,76,97,1601166220
57,narsaq,60.92,-46.05,GL,2.8,33.8,64,14,1601166220
58,castro,-24.79,-50.01,BR,4.16,66.94,53,38,1601166152
59,hambantota,6.12,81.12,LK,4.7,75.2,100,20,1601166221
60,puerto ayora,-0.74,-90.35,EC,5.01,69.01,87,33,1601166221
61,baglan,36.13,68.71,AF,1.83,51.78,52,0,1601166222
62,tura,25.52,90.22,IN,5.03,73.22,99,100,1601166222
63,port elizabeth,-33.92,25.57,ZA,6.93,50.0,76,40,1601166222
64,mataura,-46.19,168.86,NZ,15.99,46.0,87,100,1601166064
65,severo-kurilsk,50.68,156.12,RU,5.12,50.97,65,94,1601166222
66,jamestown,42.1,-79.24,US,5.82,66.99,77,1,1601166223
67,kaitangata,-46.28,169.85,NZ,28.01,51.01,62,100,1601166223
68,new norfolk,-42.78,147.06,AU,1.01,52.0,66,45,1601166156
69,oussouye,12.48,-16.55,SN,6.93,78.8,94,20,1601166223
70,ponta do sol,32.67,-17.1,PT,10.29,71.6,60,40,1601166164
71,eureka,40.8,-124.16,US,5.01,73.0,86,83,1601166224
72,bengkulu,-3.8,102.27,ID,6.2,75.61,87,91,1601166224
73,hilo,19.73,-155.09,US,7.96,82.4,61,90,1601165943
74,talnakh,69.49,88.4,RU,24.61,42.8,93,75,1601166224
75,hobart,-42.88,147.33,AU,16.11,52.0,46,40,1601166056
76,broome,42.25,-75.83,US,5.82,66.0,100,90,1601166225
77,anchorage,61.22,-149.9,US,3.0,55.0,71,75,1601165999
78,albany,42.6,-73.97,US,5.23,73.0,74,17,1601166060
79,rawlins,41.79,-107.24,US,29.97,63.0,33,1,1601166225
80,figeac,44.75,1.92,FR,4.7,41.0,100,90,1601166226
81,fenoarivo,-18.93,47.44,MG,3.36,55.4,100,20,1601166226
82,gabu,12.28,-14.22,GW,6.89,74.7,98,88,1601166226
83,airai,-8.93,125.41,TL,4.25,71.94,50,96,1601166226
84,beckley,37.78,-81.19,US,1.34,64.99,77,75,1601166226
85,novoorsk,51.38,58.98,RU,2.24,39.2,64,0,1601166227
86,aswan,24.09,32.91,EG,10.6,80.24,29,0,1601165969
87,sayyan,15.17,44.32,YE,2.08,60.21,33,0,1601166227
88,yar-sale,66.83,70.83,RU,5.03,43.75,93,93,1601166227
89,neuquen,-38.95,-68.06,AR,14.99,60.8,36,100,1601166019
90,lazaro cardenas,17.96,-102.2,MX,4.81,82.09,80,6,1601166228
91,awjilah,29.11,21.29,LY,9.37,75.76,70,4,1601166228
92,pevek,69.7,170.31,RU,8.48,36.55,91,100,1601166228
93,coquimbo,-29.95,-71.34,CL,10.29,53.6,81,0,1601166228
94,khatanga,71.97,102.5,RU,19.33,41.58,88,100,1601166229
95,manzil salim,35.86,8.48,TN,6.93,53.6,62,52,1601166229
96,clyde river,70.47,-68.59,CA,10.29,28.4,86,90,1601166229
97,kerema,-7.96,145.78,PG,4.16,79.68,84,95,1601166229
98,mafinga,-7.25,35.07,TZ,4.36,65.86,65,97,1601166230
99,acarau,-2.89,-40.12,BR,16.46,77.45,80,7,1601166230
100,fortuna,40.6,-124.16,US,12.75,71.01,77,40,1601166230
101,thompson,55.74,-97.86,CA,5.82,51.8,76,75,1601166230
102,holalkere,14.03,76.18,IN,9.71,69.64,88,100,1601166231
103,georgetown,5.41,100.34,MY,4.7,78.8,78,40,1601166113
104,katsuura,35.13,140.3,JP,11.45,69.01,84,100,1601166231
105,nicoya,10.15,-85.45,CR,5.82,78.8,83,75,1601166231
106,hutang,31.53,119.48,CN,3.0,64.99,90,0,1601166231
107,hofn,64.25,-15.21,IS,6.73,48.33,95,100,1601166232
108,bagdarin,54.43,113.6,RU,8.05,39.38,73,66,1601166232
109,kapaa,22.08,-159.32,US,10.29,86.0,62,20,1601166064
110,fort nelson,58.81,-122.7,CA,8.05,48.2,93,75,1601166232
111,grand gaube,-20.01,57.66,MU,5.99,68.0,81,14,1601166232
112,methven,-43.63,171.65,NZ,8.01,64.0,49,26,1601166233
113,opuwo,-18.06,13.84,NA,5.84,60.12,33,0,1601166233
114,tres arroyos,-38.37,-60.28,AR,4.83,55.24,79,99,1601166233
115,agadez,19.75,10.25,NE,4.32,82.29,15,0,1601166233
116,kapoeta,4.77,33.59,SS,2.55,73.6,77,18,1601166234
117,faanui,-16.48,-151.75,PF,11.63,78.78,77,24,1601166234
118,homer,59.64,-151.55,US,8.05,51.8,87,75,1601166234
119,pangnirtung,66.15,-65.71,CA,2.91,32.76,89,70,1601166209
120,sept-iles,50.2,-66.38,CA,8.05,46.4,75,90,1601166233
121,bredasdorp,-34.53,20.04,ZA,9.17,46.4,87,27,1601166235
122,deputatskiy,69.3,139.9,RU,7.76,40.69,68,17,1601166235
123,muros,42.78,-9.06,ES,7.36,61.0,93,93,1601166235
124,barrow,71.29,-156.79,US,11.41,32.0,96,90,1601166235
125,saint-philippe,-21.36,55.77,RE,8.05,68.0,60,39,1601166236
126,tianpeng,30.99,103.94,CN,2.24,64.4,100,75,1601166236
127,esperance,-33.87,121.9,AU,12.75,57.2,93,75,1601166236
128,bowen,-20.02,148.23,AU,13.87,80.6,57,0,1601166237
129,perelyub,51.87,50.37,RU,8.43,48.85,54,36,1601166237
130,hithadhoo,-0.6,73.08,MV,6.53,82.44,69,85,1601166237
131,bonavista,48.65,-53.11,CA,7.7,52.61,68,28,1601166237
132,tiksi,71.69,128.87,RU,6.76,41.56,79,100,1601166237
133,makakilo city,21.35,-158.09,US,11.41,89.6,66,90,1601166238
134,upernavik,72.79,-56.15,GL,5.99,28.89,92,100,1601166214
135,praya,14.92,-23.51,CV,2.24,78.8,88,20,1601166238
136,barbacoas,1.67,-78.14,CO,1.07,75.02,90,84,1601166238
137,pierre,44.37,-100.35,US,10.29,66.99,48,20,1601166238
138,omboue,-1.57,9.26,GA,9.44,74.59,83,98,1601166239
139,te anau,-45.42,167.72,NZ,9.06,44.44,76,86,1601166203
140,boende,-0.22,20.87,CD,2.17,71.2,93,100,1601166239
141,marsa matruh,31.35,27.25,EG,6.93,75.2,73,0,1601166239
142,shimoda,34.67,138.95,JP,11.41,69.8,83,75,1601166240
143,kodiak,57.79,-152.41,US,8.05,51.8,76,20,1601166181
144,kavaratti,10.57,72.64,IN,10.13,81.34,80,100,1601166240
145,yellowknife,62.46,-114.35,CA,5.82,44.01,100,90,1601166147
146,adrar,20.5,-10.07,MR,6.87,95.83,10,0,1601166240
147,zhuhai,22.28,113.57,CN,14.99,82.4,83,40,1601166241
148,dunmore east,52.15,-6.99,IE,7.0,45.0,79,23,1601166241
149,mar del plata,-38.0,-57.56,AR,9.17,54.0,100,90,1601166241
150,brownsville,25.9,-97.5,US,12.75,86.0,70,1,1601166001
151,laela,-8.57,32.05,TZ,1.36,61.11,62,0,1601166242
152,riyadh,24.69,46.72,SA,2.24,78.8,29,0,1601166231
153,gat,31.61,34.76,IL,5.73,75.99,74,0,1601166242
154,kavieng,-2.57,150.8,PG,12.19,84.09,78,64,1601166242
155,namatanai,-3.67,152.43,PG,7.74,86.0,66,15,1601166243
156,parabel,58.7,81.48,RU,5.55,35.42,92,24,1601166243
157,saint anthony,45.02,-93.22,US,10.29,66.2,93,90,1601166018
158,morondava,-20.28,44.28,MG,4.41,74.73,78,6,1601166243
159,north platte,41.12,-100.77,US,18.34,75.2,27,20,1601165985
160,mtwara,-10.27,40.18,TZ,7.83,73.94,87,10,1601166244
161,celestun,20.87,-90.4,MX,10.13,83.95,75,93,1601166244
162,bustamante,26.53,-100.5,MX,6.85,88.3,43,0,1601166244
163,ribeira grande,38.52,-28.7,PT,11.5,70.09,88,32,1601166244
164,surt,31.21,16.59,LY,10.4,75.42,73,5,1601166245
165,iraucuba,-3.75,-39.78,BR,4.16,73.2,77,2,1601166245
166,high level,58.52,-117.14,CA,4.7,50.0,93,75,1601166245
167,andenes,69.31,16.12,NO,8.05,33.8,80,39,1601166245
168,azambuja,39.07,-8.87,PT,7.0,63.0,3,3,1601166246
169,west point,33.61,-88.65,US,0.83,77.0,78,90,1601166246
170,norman wells,65.28,-126.83,CA,5.82,44.6,70,75,1601166246
171,dandong,40.13,124.39,CN,1.36,64.51,76,0,1601166035
172,garissa,-0.45,39.64,KE,10.2,73.53,78,0,1601166247
173,sawtell,-30.38,153.1,AU,16.11,66.99,32,0,1601166247
174,ancud,-41.87,-73.82,CL,6.38,48.99,90,75,1601166247
175,moindou,-21.69,165.68,NC,11.41,77.0,73,90,1601166247
176,terekli-mekteb,44.17,45.87,RU,18.48,69.4,47,99,1601166247
177,frederico westphalen,-27.36,-53.39,BR,3.8,73.02,58,8,1601166248
178,dickinson,29.46,-95.05,US,9.17,81.0,69,20,1601166248
179,bonthe,7.53,-12.51,SL,5.57,75.0,89,100,1601166248
180,mayahi,13.96,7.67,NE,4.29,81.95,56,99,1601166248
181,hasaki,35.73,140.83,JP,5.82,68.0,93,75,1601166208
182,assomada,15.1,-23.68,CV,2.24,78.8,88,20,1601166249
183,port lincoln,-34.73,135.87,AU,13.49,55.11,62,2,1601166249
184,iracoubo,5.48,-53.2,GF,10.6,80.38,80,8,1601166249
185,qaanaaq,77.48,-69.36,GL,5.75,12.94,77,76,1601166249
186,zeya,53.75,127.27,RU,14.36,55.6,92,100,1601166250
187,garden city,42.33,-83.33,US,5.82,73.99,64,40,1601166250
188,soyo,-6.13,12.37,AO,8.72,73.81,79,41,1601166250
189,piacabucu,-10.41,-36.43,BR,8.93,74.3,85,4,1601166250
190,nouadhibou,20.93,-17.03,MR,21.92,86.0,48,28,1601166251
191,anadyr,64.75,177.48,RU,6.71,39.2,55,20,1601166199
192,san policarpo,12.18,125.51,PH,3.06,82.09,83,45,1601166251
193,carballo,43.21,-8.69,ES,8.05,62.6,93,75,1601166228
194,uusikaupunki,60.8,21.41,FI,6.93,55.4,93,61,1601166251
195,verkhoyansk,67.54,133.38,RU,2.84,42.3,82,87,1601166252
196,xining,36.62,101.77,CN,0.81,53.46,66,95,1601165962
197,cherskiy,68.75,161.3,RU,18.63,40.98,72,1,1601166230
198,mahebourg,-20.41,57.7,MU,3.36,68.0,88,75,1601166252
199,maniitsoq,65.42,-52.9,GL,9.62,36.07,88,100,1601166240
200,grindavik,63.84,-22.43,IS,11.41,44.6,93,75,1601166253
201,igarka,67.47,86.58,RU,13.96,45.12,89,100,1601166253
202,margate,51.38,1.39,GB,11.01,52.0,75,100,1601166253
203,guerrero negro,27.98,-114.06,MX,16.31,74.26,66,0,1601166254
204,tibati,6.47,12.63,CM,1.5,67.1,93,100,1601166254
205,dauphin,51.15,-100.05,CA,4.7,57.2,82,90,1601166254
206,serenje,-13.23,30.24,ZM,0.49,60.93,32,0,1601166254
207,mwinilunga,-11.74,24.43,ZM,2.8,61.38,67,0,1601166255
208,kemang,-3.35,104.34,ID,2.24,75.2,88,20,1601166255
209,port macquarie,-31.43,152.92,AU,1.99,66.0,28,0,1601166255
210,provideniya,64.38,-173.3,RU,11.52,37.47,72,65,1601166256
211,sao joao da barra,-21.64,-41.05,BR,20.0,74.1,86,0,1601166256
212,floro,61.6,5.03,NO,7.96,48.2,70,9,1601166256
213,rocha,-34.48,-54.33,UY,5.97,60.04,97,100,1601166256
214,lavrentiya,65.58,-171.0,RU,16.46,37.45,77,87,1601166176
215,waipawa,-41.41,175.52,NZ,29.97,59.0,72,44,1601166257
216,byron bay,-28.65,153.62,AU,10.29,66.2,41,0,1601166257
217,pa daet,19.5,99.99,TH,2.24,75.2,100,40,1601166257
218,serdobsk,52.46,44.22,RU,9.71,48.02,55,0,1601166257
219,shingu,33.73,135.98,JP,13.87,77.0,65,20,1601166258
220,rovaniemi,66.5,25.72,FI,14.99,37.4,100,99,1601166258
221,luderitz,-26.65,15.16,NA,22.48,53.47,67,0,1601166258
222,ha giang,22.83,104.98,VN,1.68,74.1,86,100,1601166258
223,phan thiet,10.93,108.1,VN,3.27,79.29,78,97,1601166258
224,saldanha,-33.01,17.94,ZA,1.12,42.8,75,26,1601166259
225,alofi,-19.06,-169.92,NU,19.46,77.0,69,68,1601166259
226,tel aviv-yafo,32.08,34.78,IL,2.24,75.99,73,1,1601166011
227,gorele,41.03,39.0,TR,2.24,71.6,64,0,1601166259
228,mayumba,-3.43,10.66,GA,8.66,74.75,82,100,1601166260
229,tazovskiy,67.47,78.7,RU,14.88,44.08,90,94,1601166260
230,ponta delgada,37.73,-25.67,PT,11.41,69.8,83,75,1601166260
231,quixada,-4.97,-39.02,BR,6.76,74.35,78,37,1601166260
232,tsiroanomandidy,-18.77,46.03,MG,2.04,63.88,77,94,1601166260
233,tuatapere,-46.13,167.68,NZ,15.99,46.0,87,99,1601166150
234,santo tomas,14.11,121.14,PH,1.12,87.01,83,75,1601166261
235,isangel,-19.55,169.27,VU,9.17,82.4,74,75,1601166238
236,miyazu,35.53,135.18,JP,3.36,64.4,100,75,1601166261
237,east london,-33.02,27.91,ZA,17.16,55.53,54,3,1601166173
238,sitka,57.05,-135.33,US,6.93,57.2,71,75,1601166153
239,nemuro,43.32,145.57,JP,16.11,57.2,93,75,1601166262
240,piojo,10.75,-75.11,CO,2.24,84.2,94,40,1601166262
241,dikson,73.51,80.55,RU,27.13,38.03,78,100,1601166262
242,muzhi,65.37,64.67,RU,6.91,51.89,77,73,1601166158
243,teguise,29.06,-13.56,ES,23.04,73.4,73,40,1601166263
244,araouane,18.9,-3.53,ML,2.28,93.38,11,0,1601166263
245,nishihara,26.18,127.76,JP,5.82,73.4,100,90,1601166263
246,solnechnyy,50.72,136.63,RU,3.29,55.81,68,0,1601166263
247,sakakah,29.97,40.21,SA,9.17,77.0,27,0,1601166264
248,nalut,30.33,10.85,LY,11.65,71.22,62,30,1601166264
249,terrace,54.52,-128.6,CA,12.75,53.6,71,75,1601166080
250,bathsheba,13.22,-59.52,BB,10.29,82.4,78,20,1601166264
251,huarmey,-10.07,-78.15,PE,9.6,61.99,83,14,1601166264
252,ennepetal,51.3,7.36,DE,7.52,52.0,88,100,1601166265
253,antofagasta,-23.65,-70.4,CL,14.99,57.2,82,90,1601166265
254,zapolyarnyy,69.42,30.81,RU,4.7,35.6,80,46,1601166265
255,rafaela,-31.25,-61.49,AR,11.99,63.0,58,29,1601166265
256,hay river,60.82,-115.8,CA,4.7,46.4,87,90,1601166266
257,dingle,11.0,122.67,PH,1.86,81.97,79,77,1601166266
258,panama city,8.99,-79.52,PA,3.36,78.8,78,40,1601166019
259,kataysk,56.29,62.58,RU,4.97,44.98,92,2,1601166266
260,shibata,37.95,139.33,JP,12.75,69.8,88,75,1601166267
261,victoria point,-27.58,153.3,AU,1.99,71.01,26,0,1601166267
262,oranzherei,45.85,47.57,RU,15.66,55.4,66,98,1601166008
263,kirakira,-10.45,161.92,SB,13.73,84.96,71,23,1601166267
264,warrnambool,-38.38,142.48,AU,5.44,54.0,72,53,1601166267
265,tual,-5.67,132.75,ID,16.26,80.28,85,83,1601166268
266,artesia,33.87,-118.08,US,9.17,81.0,69,1,1601166268
267,mpika,-11.83,31.45,ZM,2.73,63.54,32,26,1601166268
268,barinas,8.62,-70.21,VE,2.01,78.03,82,73,1601166269
269,dali,25.7,100.18,CN,3.22,62.11,87,93,1601166269
270,saskylakh,71.92,114.08,RU,11.86,34.45,86,100,1601166269
271,carnarvon,-24.87,113.63,AU,13.87,68.0,64,3,1601166269
272,san patricio,19.22,-104.7,MX,6.93,86.0,74,40,1601166220
273,marshfield,44.67,-90.17,US,10.29,70.0,88,90,1601166270
274,pokhara,28.23,83.98,NP,4.76,66.83,48,0,1601166270
275,iralaya,15.0,-83.23,HN,9.17,84.2,79,40,1601166270
276,puerto del rosario,28.5,-13.86,ES,14.99,73.4,73,20,1601166046
277,palembang,-2.92,104.75,ID,2.24,75.2,88,20,1601166081
278,victoria,22.29,114.16,HK,1.01,82.0,85,99,1601165971
279,cockburn town,21.46,-71.14,TC,11.92,83.37,69,16,1601166112
280,mersing,2.43,103.84,MY,6.93,75.2,94,20,1601166271
281,takanabe,32.13,131.5,JP,4.7,73.4,69,20,1601166271
282,bangassou,4.74,22.82,CF,1.97,69.04,97,99,1601166272
283,lorengau,-2.02,147.27,PG,10.49,82.06,78,98,1601166244
284,pondicherry,11.93,79.83,IN,7.0,80.2,81,100,1601166272
285,djambala,-2.54,14.75,CG,5.66,67.71,95,100,1601166272
286,mahajanga,-15.72,46.32,MG,2.24,69.8,94,4,1601166272
287,marovoay,-16.1,46.63,MG,2.24,69.8,94,21,1601166273
288,phalombe,-15.81,35.65,MW,1.74,72.25,37,2,1601166273
289,khandyga,62.67,135.6,RU,10.25,53.98,45,97,1601166273
290,yangambi,0.81,24.43,CD,0.83,69.48,98,48,1601166273
291,chiredzi,-21.05,31.67,ZW,15.52,71.26,68,2,1601166273
292,mount isa,-20.73,139.5,AU,12.75,78.8,14,0,1601166274
293,kuching,1.55,110.33,MY,1.12,75.2,94,20,1601166274
294,dibulla,11.27,-73.31,CO,6.93,86.0,79,75,1601166274
295,aklavik,68.22,-135.01,CA,10.29,33.8,71,90,1601166274
296,barra do garcas,-15.89,-52.26,BR,2.42,83.55,38,62,1601166275
297,ilulissat,69.22,-51.1,GL,6.93,32.0,98,75,1601166275
298,meru,0.05,37.66,KE,2.37,60.73,80,32,1601166275
299,noyabrsk,63.2,75.45,RU,8.37,45.57,97,32,1601166275
300,frasinet,44.32,26.8,RO,4.0,64.0,73,93,1601166276
301,saint-louis,16.33,-15.0,SN,4.7,84.2,83,3,1601166276
302,biak,-0.91,122.88,ID,2.51,81.61,68,99,1601166276
303,sungairaya,0.7,108.9,ID,0.94,75.27,93,100,1601166276
304,suntar,62.14,117.63,RU,10.76,41.54,84,83,1601166277
305,tombouctou,20.0,-3.0,ML,4.0,93.24,11,0,1601166277
306,brookhaven,31.58,-90.44,US,1.81,73.0,86,48,1601166277
307,tucuman,-26.82,-65.22,AR,6.93,86.0,40,37,1601166237
308,kahului,20.89,-156.47,US,16.11,87.8,48,40,1601166277
309,mirpur sakro,24.55,67.63,PK,12.75,82.4,74,40,1601166278
310,tautira,-17.73,-149.15,PF,6.93,86.0,62,20,1601166278
311,cidreira,-30.18,-50.21,BR,16.37,64.47,96,98,1601166278
312,neryungri,56.67,124.65,RU,15.3,49.01,72,99,1601166278
313,chokwe,-24.53,32.98,MZ,12.44,68.38,71,64,1601166279
314,oytal,42.91,73.27,KZ,2.19,46.0,54,85,1601166279
315,sistranda,63.73,8.83,NO,4.7,46.4,75,75,1601166279
316,torrox,36.76,-3.95,ES,4.0,73.99,32,63,1601166279
317,egvekinot,66.32,-179.17,RU,3.71,32.7,79,0,1601166280
318,angoche,-16.23,39.91,MZ,14.97,73.62,77,0,1601166280
319,tawala,9.55,123.77,PH,9.17,86.0,74,20,1601166280
320,kankaanpaa,61.8,22.42,FI,3.36,57.2,87,82,1601166280
321,faya,18.39,42.45,SA,4.7,66.2,27,0,1601166281
322,edd,13.93,41.69,ER,4.94,85.75,72,33,1601166281
323,dukat,62.55,155.55,RU,8.03,43.66,59,0,1601166281
324,tommot,58.96,126.29,RU,5.99,53.65,70,100,1601166282
325,ossora,59.24,163.07,RU,4.21,47.44,65,97,1601166282
326,thyolo,-16.07,35.14,MW,7.76,72.03,33,0,1601166282
327,puerto plata,19.79,-70.69,DO,6.6,82.4,88,20,1601166281
328,ginir,7.13,40.7,ET,6.58,58.32,87,2,1601166282
329,dingzhou,38.51,115.0,CN,3.11,62.6,93,48,1601166283
330,hailar,49.2,119.7,CN,11.07,50.92,73,56,1601166283
331,bima,-8.47,118.72,ID,4.7,84.38,62,80,1601166054
332,abidjan,5.31,-4.02,CI,5.82,77.0,94,20,1601166012
333,kayerkan,69.35,87.76,RU,24.61,42.8,93,75,1601166283
334,abu dhabi,24.47,54.37,AE,3.36,86.0,84,0,1601166099
335,kurumkan,54.3,110.3,RU,6.62,42.46,82,100,1601166284
336,salalah,17.02,54.09,OM,4.7,78.8,83,75,1601166284
337,goderich,43.75,-81.72,CA,17.56,75.99,75,77,1601166284
338,camacha,33.08,-16.33,PT,11.41,69.8,73,75,1601166284
339,lompoc,34.64,-120.46,US,13.87,72.0,72,1,1601166069
340,maine-soroa,13.21,12.02,NE,8.63,85.93,36,96,1601166285
341,pisco,-13.7,-76.22,PE,13.87,64.99,82,3,1601166274
342,senhor do bonfim,-10.46,-40.19,BR,9.69,72.72,57,0,1601166285
343,naters,46.33,7.99,CH,4.68,23.0,70,86,1601166286
344,ahipara,-35.17,173.17,NZ,14.83,62.55,69,84,1601166286
345,korla,41.76,86.15,CN,18.72,55.9,37,22,1601166286
346,sao felix do xingu,-6.64,-51.99,BR,1.59,72.1,94,97,1601166286
347,jasper,37.2,-94.35,US,16.11,79.0,57,1,1601166286
348,palasa,18.77,84.42,IN,3.0,77.83,80,98,1601166287
349,rawson,-43.3,-65.1,AR,5.93,52.03,60,68,1601166287
350,tasgaon,17.03,74.6,IN,5.41,69.85,93,98,1601166287
351,nueva loja,0.08,-76.88,EC,3.36,82.4,74,20,1601166287
352,ciudad bolivar,8.12,-63.55,VE,6.96,80.17,78,95,1601166288
353,magadan,59.57,150.8,RU,5.59,49.75,58,0,1601166288
354,samagaltay,50.6,95.0,RU,8.57,33.04,87,11,1601166288
355,khorramshahr,30.44,48.17,IR,4.7,82.4,37,0,1601166288
356,souillac,-20.52,57.52,MU,3.36,68.0,88,75,1601166289
357,contamana,-7.33,-75.02,PE,2.71,83.19,55,41,1601166289
358,petropavlovsk-kamchatskiy,53.05,158.65,RU,2.24,51.8,43,0,1601166289
359,emerald,-23.53,148.17,AU,10.29,73.99,16,0,1601166289
360,hangzhou,30.29,120.16,CN,8.95,73.0,83,40,1601166290
361,sorong,-0.88,131.25,ID,4.54,82.0,75,38,1601166290
362,quatre cocos,-20.21,57.76,MU,3.36,68.0,88,75,1601166290
363,westport,41.14,-73.36,US,3.36,69.8,88,1,1601166290
364,lebu,-37.62,-73.65,CL,8.5,50.36,87,46,1601166291
365,zhoucheng,35.91,116.31,CN,4.79,66.67,71,7,1601166291
366,kismayo,-0.36,42.55,SO,10.09,77.07,85,15,1601166291
367,vereeniging,-26.67,27.93,ZA,1.99,54.0,26,0,1601166291
368,jalgaon,21.02,75.57,IN,6.02,73.08,92,79,1601166292
369,atar,20.52,-13.05,MR,7.09,94.39,20,1,1601166257
370,gwadar,25.12,62.33,PK,6.73,80.04,76,0,1601166292
371,san lawrenz,36.06,14.2,MT,4.7,69.01,59,20,1601166292
372,peski,55.22,38.76,RU,6.71,51.8,76,22,1601166292
373,alice springs,-23.7,133.88,AU,12.75,75.0,20,13,1601166293
374,amuntai,-2.42,115.25,ID,1.01,76.21,90,98,1601166293
375,new ulm,44.31,-94.46,US,4.7,71.01,88,1,1601166293
376,cherepovets,59.13,37.9,RU,7.63,51.53,85,1,1601166293
377,verkhnevilyuysk,63.45,120.32,RU,7.49,42.6,83,89,1601166293
378,meulaboh,4.14,96.13,ID,4.21,76.06,84,66,1601166294
379,mizusawa,39.13,141.13,JP,6.93,59.0,93,75,1601166294
380,yuanping,38.72,112.76,CN,0.81,57.43,78,47,1601166294
381,kupang,-10.17,123.58,ID,9.17,86.0,51,20,1601166240
382,pirenopolis,-15.85,-48.96,BR,3.8,71.6,43,0,1601166295
383,birjand,32.87,59.22,IR,11.41,55.4,20,0,1601166295
384,vitim,59.45,112.56,RU,7.76,43.63,80,100,1601166295
385,leningradskiy,69.38,178.42,RU,10.4,32.99,95,100,1601166295
386,pitimbu,-7.47,-34.81,BR,6.93,73.4,88,40,1601166296
387,teya,60.38,92.63,RU,2.33,35.8,89,67,1601166296
388,hohhot,40.81,111.65,CN,2.24,59.0,82,40,1601166296
389,samarai,-10.62,150.67,PG,14.14,79.95,85,95,1601166296
390,dennery,13.9,-60.89,LC,4.7,84.2,79,20,1601166297
391,tara,56.89,74.37,RU,3.15,38.14,90,100,1601166297
392,kungurtug,50.6,97.52,RU,0.36,28.67,91,0,1601166124
393,vicuna,-30.03,-70.71,CL,10.29,53.6,81,26,1601166297
394,vidalia,32.22,-82.41,US,3.6,75.2,78,1,1601166297
395,richards bay,-28.78,32.04,ZA,7.56,62.44,73,100,1601166298
396,dunedin,-45.87,170.5,NZ,25.99,48.0,69,100,1601166214
397,baiyin,36.56,104.21,CN,2.24,55.4,82,75,1601166298
398,kingsville,27.52,-97.86,US,16.11,86.0,74,1,1601166298
399,champagnole,46.74,5.91,FR,3.0,42.01,91,86,1601166299
400,bemidji,47.47,-94.88,US,11.41,57.2,87,90,1601166299
401,amberley,39.2,-84.43,US,4.7,72.0,77,1,1601166299
402,san isidro,-12.12,-77.05,PE,10.29,61.0,82,40,1601166137
403,nome,64.5,-165.41,US,3.36,41.0,44,20,1601166245
404,cabedelo,-6.98,-34.83,BR,6.93,73.4,88,40,1601166300
405,fairbanks,64.84,-147.72,US,6.93,53.6,58,1,1601166150
406,christchurch,-43.53,172.63,NZ,24.16,68.0,37,8,1601166144
407,taksimo,56.34,114.88,RU,5.03,42.98,78,100,1601166300
408,sampues,9.18,-75.38,CO,3.36,82.4,88,40,1601166300
409,bandarbeyla,9.49,50.81,SO,22.24,76.71,79,37,1601166126
410,najran,17.49,44.13,SA,4.7,69.8,30,0,1601166301
411,zhigansk,66.77,123.37,RU,2.44,43.97,83,96,1601166301
412,mabaruma,8.2,-59.78,GY,2.3,77.23,86,99,1601166301
413,palu,-0.89,119.87,ID,2.71,79.23,75,100,1601166263
414,buin,-33.73,-70.75,CL,8.05,55.4,62,0,1601166302
415,bridlington,54.08,-0.19,GB,13.87,51.8,71,98,1601166302
416,magan,39.97,-3.93,ES,10.71,62.01,55,14,1601166302
417,lagos,6.58,3.75,NG,5.44,74.68,93,98,1601166242
418,ambovombe,-25.17,46.08,MG,5.99,69.03,77,0,1601166303
419,balabac,7.99,117.06,PH,7.87,83.93,74,88,1601166303
420,buraydah,26.33,43.98,SA,5.82,78.8,29,0,1601166057
421,mangrol,21.12,70.12,IN,8.41,79.2,77,57,1601166303
422,baturaja,-4.13,104.17,ID,1.14,74.71,87,99,1601166177
423,mandal,25.45,74.57,IN,5.23,71.28,78,0,1601166304
424,talaya,61.38,152.75,RU,5.75,48.45,48,0,1601166304
425,tecoanapa,16.52,-98.75,MX,2.21,81.73,79,71,1601166304
426,chapais,49.78,-74.85,CA,6.93,59.0,93,90,1601166304
427,gushikawa,26.35,127.87,JP,3.36,71.6,88,90,1601166305
428,lensk,60.73,114.93,RU,8.43,42.67,81,100,1601166305
429,ostrovnoy,68.05,39.51,RU,12.71,42.64,88,100,1601166305
430,bilibino,68.05,166.44,RU,3.94,34.41,88,100,1601166163
431,miranda,3.25,-76.23,CO,6.93,75.2,60,75,1601166306
432,eskil,38.4,33.41,TR,11.88,68.13,54,0,1601166306
433,katangli,51.71,143.23,RU,14.54,52.52,79,100,1601166306
434,bria,6.54,21.99,CF,3.94,68.4,96,100,1601166306
435,lhokseumawe,5.18,97.15,ID,4.09,76.86,79,99,1601166307
436,rongcheng,30.63,117.85,CN,5.26,70.0,92,60,1601166307
437,matadi,-5.82,13.45,CD,6.53,73.4,78,58,1601166307
438,pahrump,36.21,-115.98,US,1.99,96.01,11,17,1601166203
439,young,-32.68,-57.63,UY,6.93,64.0,96,81,1601166307
440,ocean city,39.28,-74.57,US,4.7,69.01,88,1,1601166229
441,tabuk,17.42,121.44,PH,1.66,78.03,83,96,1601166308
442,yerbogachen,61.28,108.01,RU,6.67,38.07,82,0,1601166308
443,rosario do sul,-30.26,-54.91,BR,18.28,67.17,84,43,1601166309
444,nelson bay,-32.72,152.15,AU,14.99,62.01,41,0,1601166167
445,kulhudhuffushi,6.62,73.07,MV,10.4,81.28,80,89,1601166309
446,san vicente,-26.62,-54.13,AR,4.88,78.04,39,16,1601166309
447,berlevag,70.86,29.09,NO,15.19,41.76,67,1,1601166310
448,la brea,15.8,-85.97,HN,4.34,81.0,83,22,1601166310
449,ulladulla,-35.35,150.47,AU,9.17,59.0,41,75,1601166247
450,vanavara,60.34,102.28,RU,4.41,34.93,90,76,1601166310
451,humberto de campos,-2.6,-43.46,BR,6.55,76.75,84,99,1601166310
452,iseyin,7.97,3.6,NG,2.53,72.05,97,83,1601166311
453,auki,-8.77,160.7,SB,4.27,86.7,62,19,1601166311
454,shitanjing,39.23,106.34,CN,13.31,56.32,79,26,1601166311
455,spanish lake,38.79,-90.22,US,10.29,80.6,47,40,1601166311
456,chimbarongo,-34.7,-71.05,CL,5.82,55.4,58,6,1601166312
457,vestmannaeyjar,63.44,-20.27,IS,7.05,50.16,96,100,1601166312
458,touros,-5.2,-35.46,BR,6.93,75.2,83,20,1601166312
459,ilebo,-4.32,20.58,CD,0.85,70.52,88,61,1601166312
460,saint-augustin,51.23,-58.65,CA,11.5,47.17,68,100,1601166313
461,tadine,-21.55,167.88,NC,6.87,77.85,78,9,1601166313
462,nosy varika,-20.58,48.53,MG,9.8,68.22,83,8,1601166313
463,codrington,-38.27,141.97,AU,5.97,51.44,60,35,1601166313
464,port said,31.26,32.28,EG,8.05,78.8,78,20,1601166194
465,maumere,-8.62,122.21,ID,5.08,82.0,74,97,1601166314
466,ketchikan,55.34,-131.65,US,16.11,55.4,82,75,1601166314
467,kutum,14.2,24.67,SD,4.63,78.28,41,29,1601166314
468,vao,-22.67,167.48,NC,7.49,73.6,88,1,1601166314
469,husavik,66.04,-17.34,IS,13.87,50.0,71,100,1601166315
470,karachi,24.91,67.08,PK,12.75,82.4,74,40,1601166152
471,vagur,61.47,-6.81,FO,14.63,47.75,73,100,1601166315
472,maposeni,-10.58,35.4,TZ,8.95,64.94,68,0,1601166315
473,tevaitoa,-16.78,-151.5,PF,12.26,79.59,75,17,1601166316
474,comodoro rivadavia,-45.87,-67.5,AR,9.17,62.6,29,0,1601166316
475,troitskoye,52.98,84.68,RU,3.8,38.55,93,48,1601166316
476,banda aceh,5.56,95.32,ID,9.51,78.87,81,94,1601166224
477,lasa,46.62,10.7,IT,3.36,37.99,67,40,1601166316
478,kununurra,-15.77,128.73,AU,10.29,87.8,55,75,1601166260
479,longyan,25.11,117.02,CN,1.43,66.74,88,100,1601166317
480,sitio novo do tocantins,-5.52,-47.46,BR,3.56,83.57,50,99,1601166317
481,glogow,51.66,16.08,PL,1.01,48.99,84,98,1601166317
482,brewster,41.4,-73.62,US,4.34,68.0,88,75,1601166318
483,manggar,-2.88,108.27,ID,3.04,79.11,80,100,1601166318
484,taoudenni,22.68,-3.98,ML,6.04,97.07,9,0,1601166318
485,nueva concepcion,14.2,-91.3,GT,6.93,82.4,100,75,1601166318
486,polovinnoye,54.79,65.99,RU,3.98,42.96,79,2,1601166318
487,fayetteville,35.05,-78.88,US,9.17,72.0,78,90,1601166319
488,wexford,52.33,-6.46,IE,8.21,45.0,77,2,1601166319
489,coruripe,-10.13,-36.18,BR,8.93,74.28,86,11,1601166020
490,kidal,18.44,1.41,ML,2.53,88.65,14,0,1601166319
491,palana,59.12,159.97,RU,13.65,44.19,70,0,1601166320
492,zaysan,47.47,84.87,KZ,5.23,38.28,71,0,1601166320
493,gornopravdinsk,60.05,69.9,RU,4.5,43.2,96,65,1601166320
494,half moon bay,37.46,-122.43,US,16.11,80.6,72,1,1601166211
495,kiama,-34.68,150.87,AU,9.17,59.0,45,75,1601166320
496,mount gambier,-37.83,140.77,AU,6.93,53.6,71,75,1601166192
497,nuuk,64.18,-51.72,GL,5.82,37.4,86,75,1601166321
498,mardin,37.31,40.74,TR,9.17,69.8,49,0,1601166321
499,acapulco,16.86,-99.89,MX,4.7,84.2,74,75,1601166305
500,conceicao do araguaia,-8.26,-49.26,BR,1.9,80.46,57,53,1601166321
501,lumberton,34.62,-79.01,US,8.05,73.4,88,40,1601166304
502,arlit,18.74,7.39,NE,7.52,92.26,12,0,1601166322
503,woodstock,43.13,-80.75,CA,6.93,69.01,82,40,1601166322
504,mitu,1.2,-70.17,CO,1.57,74.32,89,18,1601166323
505,chapleau,47.84,-83.4,CA,6.93,62.6,93,90,1601166323
506,nong phai,15.99,101.06,TH,2.26,77.94,87,94,1601166323
507,dhidhdhoo,6.88,73.1,MV,10.76,81.37,79,92,1601166323
508,tiznit,29.58,-9.5,MA,6.11,66.42,71,14,1601166323
509,yumen,40.28,97.2,CN,13.06,48.04,39,56,1601166183
510,hami,42.8,93.45,CN,12.62,53.8,40,1,1601166324
511,blenheim,-41.52,173.95,NZ,3.0,62.01,76,20,1601166324
512,monrovia,6.3,-10.8,LR,5.26,75.2,100,75,1601166187
513,lardos,36.09,28.02,GR,2.24,77.0,78,20,1601166324
514,port blair,11.67,92.75,IN,12.73,82.04,78,86,1601166129
515,arraial do cabo,-22.97,-42.03,BR,22.26,73.76,85,0,1601166175
516,maceio,-9.67,-35.74,BR,6.93,77.0,78,40,1601166100
517,vrangel,42.73,133.08,RU,3.51,57.7,70,23,1601166325
518,romans-sur-isere,45.05,5.06,FR,5.01,42.01,86,6,1601166325
519,oktyabrskiy,54.48,53.47,RU,1.05,47.41,71,76,1601166326
520,inuvik,68.35,-133.72,CA,10.29,33.8,100,90,1601166326
521,abrau-dyurso,44.69,37.59,RU,6.71,66.2,88,20,1601166326
522,caraballeda,10.61,-66.85,VE,5.97,75.0,76,97,1601166326
523,namibe,-15.2,12.15,AO,6.62,60.76,89,69,1601166327
524,manokwari,-0.87,134.08,ID,2.53,83.53,67,22,1601166327
525,oarai,36.32,140.6,JP,5.82,66.2,82,75,1601166327
526,honningsvag,70.98,25.97,NO,19.3,43.7,66,10,1601166327
527,lithakia,37.72,20.83,GR,4.7,60.8,87,14,1601166328
528,burnie,-41.07,145.92,AU,17.0,48.99,59,6,1601166328
529,el alto,-4.27,-81.21,PE,14.25,62.58,83,5,1601166328
530,flin flon,54.77,-101.86,CA,11.41,60.8,51,40,1601166328
531,belaya gora,68.53,146.42,RU,10.74,46.2,53,35,1601166329
532,kaminoyama,38.15,140.27,JP,2.24,66.2,88,75,1601166329
533,heihe,50.24,127.49,CN,15.66,55.4,87,40,1601166329
534,conceicao da feira,-12.51,-39.0,BR,4.81,66.79,95,0,1601166330
535,xunchang,28.45,104.72,CN,1.9,63.43,95,100,1601166330
536,mecca,21.43,39.83,SA,2.82,82.42,45,0,1601166330
537,lumphat,13.49,106.98,KH,1.61,75.67,97,100,1601166330
538,kpandae,8.47,-0.01,GH,3.53,73.17,95,67,1601166330
539,chai nat,15.19,100.12,TH,2.91,78.4,86,99,1601166331
540,abha,18.22,42.51,SA,4.7,66.2,27,0,1601166331
541,midland,32.0,-102.08,US,14.99,93.99,30,1,1601166331
542,det udom,14.91,105.08,TH,3.36,77.0,100,40,1601166331
543,tukrah,32.53,20.58,LY,8.9,74.37,72,0,1601166332
544,biskupiec,53.86,20.96,PL,8.05,60.8,82,99,1601166332
545,sabang,5.89,95.32,ID,13.96,81.48,80,100,1601166332
546,batagay,67.63,134.63,RU,4.54,41.99,77,89,1601166332
547,mehamn,71.04,27.85,NO,15.9,40.69,70,0,1601166333
548,kisangani,0.52,25.2,CD,2.1,70.27,96,75,1601166333
549,shimanovsk,52.0,127.7,RU,18.68,54.16,92,100,1601166333
550,gobabis,-22.45,18.97,NA,4.59,52.11,40,0,1601166333
551,finschhafen,-6.6,147.87,PG,8.59,83.84,69,100,1601166333
552,the valley,18.22,-63.06,AI,10.29,84.99,74,20,1601166329
553,nizhniy tsasuchey,50.52,115.13,RU,17.52,45.14,59,34,1601166334
554,shelburne,44.08,-80.2,CA,12.75,69.8,64,1,1601166334
555,vila velha,-20.33,-40.29,BR,13.87,78.01,83,0,1601166334
556,khaniotis,40.0,23.58,GR,5.88,63.0,55,0,1601166334
557,prachuap khiri khan,11.82,99.78,TH,6.91,80.19,78,81,1601166335
558,los llanos de aridane,28.66,-17.92,ES,14.99,75.2,73,20,1601166335
559,newport,51.59,-3.0,GB,8.48,52.0,78,0,1601166335
560,gorom-gorom,14.44,-0.24,BF,17.13,88.48,45,88,1601166336
561,saint-pierre,-21.34,55.48,RE,8.05,68.0,60,0,1601166336
562,jumla,29.27,82.18,NP,3.89,49.17,53,1,1601166336
563,nantucket,41.28,-70.1,US,6.93,62.6,93,1,1601166093
564,veraval,20.9,70.37,IN,8.84,79.16,77,60,1601166264
565,nago,26.59,127.98,JP,3.36,71.6,88,90,1601166337
566,delta,5.5,6.0,NG,1.81,73.17,96,100,1601166337
567,maldonado,-34.67,-54.92,UY,4.7,62.6,88,75,1601166110
568,hammerfest,70.66,23.68,NO,21.92,41.0,65,13,1601166337
569,west wendover,40.74,-114.07,US,13.87,71.6,35,1,1601166338
